,country,location_name,latitude,longitude,timezone,temperature_celsius,temperature_fahrenheit,condition_text,wind_mph,wind_kph,wind_direction,precip_mm,precip_in,humidity,feels_like_celsius,feels_like_fahrenheit,visibility_km,visibility_miles,uv_index,sunrise,sunset,moonrise,moonset
0,Afghanistan,Kabul,34.52,69.18,Asia/Kabul,28.8,83.8,Sunny,7.2,11.5,ENE,0.0,0.0,19,26.7,80.1,10.0,6.0,7.0,05:24 AM,06:24 PM,05:39 PM,02:48 AM
1,Albania,Tirana,41.33,19.82,Europe/Tirane,27.0,80.6,Partly cloudy,3.8,6.1,SSW,0.0,0.0,54,28.0,82.3,10.0,6.0,6.0,06:04 AM,07:19 PM,06:50 PM,03:25 AM
2,Algeria,Algiers,36.76,3.05,Africa/Algiers,28.0,82.4,Partly cloudy,8.1,13.0,WSW,0.0,0.0,30,27.4,81.3,10.0,6.0,7.0,06:16 AM,07:21 PM,06:46 PM,03:50 AM
3,Andorra,Andorra La Vella,42.5,1.52,Europe/Andorra,10.2,50.4,Sunny,6.0,9.7,NNW,0.0,0.0,51,8.9,48.0,10.0,6.0,4.0,07:16 AM,08:34 PM,08:08 PM,04:38 AM
4,Angola,Luanda,-8.84,13.23,Africa/Luanda,25.0,77.0,Partly cloudy,2.2,3.6,W,0.0,0.0,69,26.9,80.4,10.0,6.0,6.0,06:11 AM,06:06 PM,04:43 PM,04:41 AM
5,Antigua and Barbuda,Saint John's,17.12,-61.85,America/Antigua,29.0,84.2,Light rain,9.4,15.1,E,0.3,0.01,79,34.0,93.2,10.0,6.0,1.0,05:53 AM,06:23 PM,05:36 PM,04:09 AM
6,Argentina,Buenos Aires,-34.59,-58.67,America/Argentina/Buenos_Aires,9.0,48.2,Clear,6.9,11.2,ENE,0.0,0.0,71,8.0,46.4,10.0,6.0,1.0,07:18 AM,06:34 PM,04:57 PM,06:32 AM
7,Armenia,Yerevan,40.18,44.51,Asia/Yerevan,31.0,87.8,Partly cloudy,5.6,9.0,S,0.0,0.0,26,29.0,84.2,10.0,6.0,8.0,06:26 AM,07:39 PM,07:05 PM,03:45 AM
8,Australia,Canberra,-35.28,149.22,Australia/Sydney,13.0,55.4,Clear,9.4,15.1,N,0.0,0.0,62,12.7,54.8,10.0,6.0,1.0,06:27 AM,05:42 PM,03:19 PM,05:17 AM
9,Austria,Vienna,48.2,16.37,Europe/Vienna,16.0,60.8,Light rain,11.9,19.1,NW,0.0,0.0,82,16.0,60.8,10.0,6.0,4.0,06:07 AM,07:43 PM,07:27 PM,03:11 AM
10,Azerbaijan,Baku,40.4,49.88,Asia/Baku,31.0,87.8,Sunny,13.6,22.0,N,0.0,0.0,36,32.7,90.8,10.0,6.0,7.0,06:04 AM,07:18 PM,06:44 PM,03:21 AM
11,Bahamas,Nassau,25.08,-77.35,America/Nassau,29.8,85.6,Clear,8.9,14.4,SW,0.0,0.0,80,36.6,97.9,10.0,6.0,1.0,06:49 AM,07:32 PM,06:53 PM,04:58 AM
12,Bahrain,Manama,26.24,50.58,Asia/Bahrain,38.0,100.4,Sunny,8.1,13.0,ENE,0.0,0.0,54,47.8,118.1,10.0,6.0,9.0,05:16 AM,06:01 PM,05:07 PM,02:58 AM
13,Bangladesh,Dhaka,23.72,90.41,Asia/Dhaka,34.0,93.2,Cloudy,3.4,5.4,W,0.0,0.0,52,39.6,103.3,10.0,6.0,7.0,05:39 AM,06:19 PM,05:18 PM,03:17 AM
14,Barbados,Bridgetown,13.1,-59.62,America/Barbados,27.0,80.6,Partly cloudy,16.1,25.9,E,0.4,0.02,89,30.0,86.0,10.0,6.0,1.0,05:47 AM,06:11 PM,05:20 PM,04:07 AM
15,Belarus,Minsk,53.9,27.57,Europe/Minsk,22.0,71.6,Sunny,6.9,11.2,E,0.0,0.0,61,24.4,76.0,10.0,6.0,6.0,06:12 AM,08:08 PM,08:06 PM,02:51 AM
16,Belgium,Brussels,50.83,4.33,Europe/Brussels,16.0,60.8,Partly cloudy,3.8,6.1,WSW,0.0,0.0,82,16.0,60.8,10.0,6.0,5.0,06:51 AM,08:35 PM,08:26 PM,03:49 AM
17,Belize,Belmopan,17.25,-88.77,America/Belize,23.6,74.5,Patchy rain possible,4.3,6.8,SW,0.7,0.03,95,26.1,79.0,9.0,5.0,1.0,05:41 AM,06:11 PM,05:28 PM,04:01 AM
18,Benin,Porto-Novo,6.48,2.62,Africa/Porto-Novo,28.0,82.4,Partly cloudy,10.5,16.9,SW,0.0,0.0,84,31.0,87.8,10.0,6.0,6.0,06:43 AM,06:58 PM,05:52 PM,04:59 AM
19,Bhutan,Thimphu,27.48,89.6,Asia/Thimphu,17.1,62.8,Patchy rain possible,5.4,8.6,SSW,1.3,0.05,75,17.1,62.8,9.0,5.0,4.0,05:39 AM,06:26 PM,05:29 PM,03:11 AM
20,Bolivia,Sucre,-19.04,-65.26,America/La_Paz,10.8,51.4,Clear,2.2,3.6,W,0.0,0.0,38,11.2,52.2,10.0,6.0,1.0,06:31 AM,06:13 PM,04:55 PM,05:27 AM
21,Bosnia and Herzegovina,Sarajevo,43.85,18.38,Europe/Sarajevo,23.0,73.4,Partly cloudy,18.6,29.9,SE,0.0,0.0,47,24.6,76.3,10.0,6.0,6.0,06:06 AM,07:28 PM,07:03 PM,03:22 AM
22,Botswana,Gaborone,-24.65,25.91,Africa/Gaborone,18.4,65.1,Sunny,9.4,15.1,NE,0.0,0.0,35,18.4,65.1,10.0,6.0,5.0,06:31 AM,06:04 PM,04:22 PM,05:20 AM
23,Brazil,Bras,-2.08,-58.17,America/Manaus,23.8,74.8,Clear,3.1,5.0,E,0.0,0.0,54,25.2,77.4,10.0,6.0,1.0,05:52 AM,05:56 PM,04:51 PM,04:27 AM
24,Brunei Darussalam,Bandar Seri Begawan,4.88,114.93,Asia/Brunei,31.0,87.8,Partly cloudy,6.9,11.2,W,0.4,0.02,79,37.4,99.3,10.0,6.0,6.0,06:15 AM,06:28 PM,05:02 PM,04:12 AM
25,Bulgaria,Sofia,42.68,23.32,Europe/Sofia,28.0,82.4,Partly cloudy,9.4,15.1,E,0.1,0.0,40,27.2,81.0,10.0,6.0,6.0,06:48 AM,08:07 PM,07:40 PM,04:05 AM
26,Burkina Faso,Ouagadougou,12.37,-1.52,Africa/Ouagadougou,28.0,82.4,Partly cloudy,4.3,6.8,SSW,0.0,0.0,79,30.2,86.3,10.0,6.0,7.0,05:55 AM,06:18 PM,05:18 PM,04:05 AM
27,Burundi,Bujumbura,-3.38,29.36,Africa/Bujumbura,28.9,84.0,Partly cloudy,10.5,16.9,SSW,0.0,0.0,34,28.2,82.8,10.0,6.0,7.0,06:03 AM,06:05 PM,04:44 PM,04:24 AM
28,Madagascar,Ivory,-24.37,46.45,Indian/Antananarivo,22.9,73.2,Sunny,6.3,10.1,ESE,0.0,0.0,35,24.0,75.2,10.0,6.0,6.0,06:09 AM,05:42 PM,03:57 PM,04:54 AM
29,Cape Verde,Praia,14.93,-23.51,Atlantic/Cape_Verde,28.0,82.4,Partly cloudy,9.4,15.1,NNE,0.0,0.0,74,31.6,88.8,6.0,3.0,7.0,06:21 AM,06:48 PM,05:54 PM,04:32 AM
30,Cambodia,Phnom Penh,11.55,104.92,Asia/Phnom_Penh,30.0,86.0,Moderate or heavy rain with thunder,6.9,11.2,NW,0.0,0.0,75,30.3,86.5,8.0,4.0,8.0,05:50 AM,06:12 PM,04:55 PM,03:42 AM
31,Cameroon,Bafoussam,5.47,10.42,Africa/Douala,23.9,75.0,Patchy rain possible,2.2,3.6,WSW,0.8,0.03,78,25.8,78.4,9.0,5.0,5.0,06:12 AM,06:26 PM,05:18 PM,04:28 AM
32,Canada,Ottawa,45.42,-75.7,America/Toronto,11.0,51.8,Clear,4.3,6.8,SSW,0.0,0.0,100,11.4,52.4,24.0,14.0,1.0,06:20 AM,07:46 PM,07:33 PM,03:54 AM
33,Central African Republic,Bangui,4.37,18.58,Africa/Bangui,26.3,79.3,Partly cloudy,2.2,3.6,SSW,0.0,0.0,80,29.0,84.2,10.0,6.0,7.0,05:41 AM,05:53 PM,04:42 PM,03:56 AM
34,Chad,N'djamena,12.11,15.05,Africa/Douala,32.0,89.6,Sunny,11.9,19.1,SW,0.0,0.0,67,38.7,101.6,7.0,4.0,7.0,05:49 AM,06:12 PM,05:09 PM,03:56 AM
35,Chile,Santiago,-33.45,-70.67,America/Santiago,5.0,41.0,Clear,3.8,6.1,NE,0.0,0.0,87,3.6,38.4,10.0,6.0,1.0,07:05 AM,06:23 PM,04:50 PM,06:19 AM
36,China,Beijing,39.93,116.39,Asia/Shanghai,28.0,82.4,Sunny,4.3,6.8,NE,0.0,0.0,37,28.2,82.7,10.0,6.0,7.0,05:39 AM,06:52 PM,06:09 PM,02:41 AM
37,Bulgaria,Bogot,43.32,24.7,Europe/Sofia,36.4,97.5,Sunny,7.4,11.9,SE,0.0,0.0,17,35.0,95.0,10.0,6.0,9.0,06:41 AM,08:02 PM,07:36 PM,03:57 AM
38,Comoros,Moroni,-11.7,43.24,Indian/Comoro,24.0,75.2,Partly cloudy,15.0,24.1,SSW,3.0,0.12,83,26.0,78.8,10.0,6.0,5.0,06:12 AM,06:04 PM,04:33 PM,04:42 AM
39,Congo,Brazzaville,-4.26,15.28,Africa/Brazzaville,31.1,88.0,Partly cloudy,5.6,9.0,SW,0.0,0.0,51,33.4,92.1,10.0,6.0,8.0,05:59 AM,06:00 PM,04:42 PM,04:25 AM
40,Costa Rica,San Juan,9.97,-84.08,America/Costa_Rica,21.0,69.8,Clear,3.8,6.1,NW,0.0,0.0,94,21.0,69.8,10.0,6.0,1.0,05:28 AM,05:47 PM,04:57 PM,03:55 AM
41,Croatia,Zagreb,45.8,16.0,Europe/Zagreb,23.0,73.4,Partly cloudy,2.2,3.6,S,0.0,0.0,69,24.8,76.7,10.0,6.0,6.0,06:13 AM,07:41 PM,07:19 PM,03:24 AM
42,Cuba,Havana,23.13,-82.36,America/Havana,26.0,78.8,Partly cloudy,9.4,15.1,SSE,0.0,0.0,100,28.9,84.0,9.0,5.0,1.0,07:11 AM,07:50 PM,07:11 PM,05:23 AM
43,Cyprus,Nicosia,35.17,33.37,Asia/Nicosia,35.0,95.0,Partly cloudy,6.9,11.2,N,0.0,0.0,35,37.1,98.8,10.0,6.0,8.0,06:16 AM,07:18 PM,06:38 PM,03:47 AM
44,Czech Republic,Prague,50.08,14.47,Europe/Prague,13.0,55.4,Overcast,5.6,9.0,NW,0.1,0.0,94,12.5,54.5,10.0,6.0,3.0,06:12 AM,07:54 PM,07:42 PM,03:10 AM
45,Democratic Republic of Congo,Kinshasa,-4.3,15.3,Africa/Brazzaville,31.1,88.0,Partly cloudy,5.6,9.0,SW,0.0,0.0,50,33.4,92.1,10.0,6.0,8.0,05:59 AM,06:00 PM,04:42 PM,04:25 AM
46,Denmark,Copenhagen,55.67,12.58,Europe/Copenhagen,17.0,62.6,Sunny,4.3,6.8,N,0.0,0.0,72,17.0,62.6,10.0,6.0,5.0,06:08 AM,08:12 PM,08:16 PM,02:42 AM
47,Djibouti,Djibouti,11.6,43.15,Africa/Djibouti,42.0,107.6,Mist,9.4,15.1,WSW,0.0,0.0,29,59.1,138.3,8.0,4.0,9.0,05:57 AM,06:19 PM,05:12 PM,04:00 AM
48,Dominica,Roseau,15.3,-61.4,America/Dominica,28.2,82.8,Light rain shower,12.3,19.8,E,0.6,0.02,79,32.6,90.7,10.0,6.0,1.0,05:53 AM,06:20 PM,05:31 PM,04:10 AM
49,Dominican Republic,Santo Domingo,18.47,-69.9,America/Santo_Domingo,26.0,78.8,Partly cloudy,4.3,6.8,ESE,0.0,0.0,94,30.6,87.1,10.0,6.0,1.0,06:24 AM,06:56 PM,06:11 PM,04:40 AM
50,Ecuador,Quito,-0.22,-78.5,America/Guayaquil,8.9,48.0,Clear,4.3,6.8,SE,0.0,0.0,62,8.0,46.4,10.0,6.0,1.0,06:12 AM,06:18 PM,05:19 PM,04:48 AM
51,Egypt,Cairo,30.05,31.25,Africa/Cairo,31.0,87.8,Partly cloudy,11.9,19.1,NW,0.0,0.0,46,34.3,93.7,10.0,6.0,1.0,06:30 AM,07:22 PM,06:35 PM,04:10 AM
52,El Salvador,San Salvador,13.71,-89.2,America/El_Salvador,26.0,78.8,Light rain,4.3,6.8,NE,0.0,0.0,94,30.2,86.4,10.0,6.0,1.0,05:45 AM,06:10 PM,05:24 PM,04:09 AM
53,Equatorial Guinea,Malabo,3.75,8.78,Africa/Malabo,25.9,78.6,Light rain shower,5.4,8.6,W,2.0,0.08,81,28.6,83.5,10.0,6.0,6.0,06:20 AM,06:31 PM,05:22 PM,04:38 AM
54,Eritrea,Asmara,15.33,38.93,Africa/Asmara,25.1,77.2,Patchy rain possible,10.7,17.3,NE,0.1,0.0,34,25.0,77.0,10.0,6.0,6.0,06:11 AM,06:39 PM,05:35 PM,04:10 AM
55,Estonia,Tallinn,59.43,24.73,Europe/Tallinn,19.0,66.2,Partly cloudy,10.5,16.9,SSW,0.0,0.0,73,19.0,66.2,10.0,6.0,5.0,06:09 AM,08:33 PM,08:51 PM,02:15 AM
56,Swaziland,Mbabane,-26.32,31.13,Africa/Mbabane,20.0,68.0,Sunny,2.2,3.6,ENE,0.0,0.0,49,20.0,68.0,10.0,6.0,5.0,06:12 AM,05:42 PM,03:57 PM,05:02 AM
57,Ethiopia,Addis Ababa,9.03,38.7,Africa/Addis_Ababa,17.0,62.6,Partly cloudy,8.1,13.0,S,2.7,0.11,83,17.0,62.6,10.0,6.0,3.0,06:17 AM,06:35 PM,05:26 PM,04:23 AM
58,Fiji Islands,Suva,-18.13,178.42,Pacific/Fiji,24.0,75.2,Partly cloudy,8.1,13.0,ESE,0.1,0.0,78,25.9,78.7,10.0,6.0,1.0,06:17 AM,05:59 PM,03:56 PM,04:33 AM
59,Finland,Helsinki,60.18,24.93,Europe/Helsinki,20.0,68.0,Partly cloudy,11.9,19.1,SW,0.0,0.0,64,20.0,68.0,10.0,6.0,5.0,06:06 AM,08:34 PM,08:56 PM,02:06 AM
60,France,Paris,48.87,2.33,Europe/Paris,18.0,64.4,Partly cloudy,6.9,11.2,WSW,0.0,0.0,64,18.0,64.4,10.0,6.0,6.0,07:03 AM,08:40 PM,08:26 PM,04:07 AM
61,Gabon,Libreville,0.38,9.45,Africa/Libreville,27.0,80.6,Light rain shower,5.1,8.3,S,0.2,0.01,74,29.6,85.3,10.0,6.0,6.0,06:19 AM,06:27 PM,05:14 PM,04:41 AM
62,Gambia,Banjul,13.45,-16.58,Africa/Banjul,27.0,80.6,Partly cloudy,9.4,15.1,S,0.7,0.03,94,30.4,86.7,10.0,6.0,6.0,06:55 AM,07:20 PM,06:22 PM,05:06 AM
63,Georgia,Tbilisi,41.73,44.79,Asia/Tbilisi,30.0,86.0,Sunny,8.1,13.0,SSE,0.0,0.0,43,30.2,86.3,10.0,6.0,7.0,06:23 AM,07:40 PM,07:09 PM,03:38 AM
64,Germany,Berlin,52.52,13.4,Europe/Berlin,16.0,60.8,Light rain,9.4,15.1,N,0.3,0.01,82,16.0,60.8,10.0,6.0,3.0,06:11 AM,08:02 PM,07:56 PM,03:01 AM
65,Ghana,Accra,5.55,-0.22,Africa/Accra,26.0,78.8,Overcast,6.9,11.2,WSW,0.0,0.0,89,28.4,83.1,10.0,6.0,7.0,05:55 AM,06:09 PM,05:02 PM,04:12 AM
66,Greece,Athens,37.98,23.72,Europe/Athens,32.0,89.6,Partly cloudy,6.9,11.2,E,0.0,0.0,26,32.3,90.1,10.0,6.0,8.0,06:52 AM,08:00 PM,07:25 PM,04:19 AM
67,Grenada,Saint George's,12.05,-61.75,America/Grenada,26.0,78.8,Partly cloudy,12.5,20.2,ENE,0.4,0.02,94,28.6,83.5,10.0,6.0,1.0,05:57 AM,06:19 PM,05:28 PM,04:17 AM
68,Guatemala,Guatemala City,14.62,-90.53,America/Guatemala,17.0,62.6,Mist,2.2,3.6,WSW,0.0,0.0,96,17.0,62.6,2.0,1.0,1.0,05:50 AM,06:16 PM,05:31 PM,04:13 AM
69,Guinea,Conakry,9.51,-13.71,Africa/Conakry,25.0,77.0,Partly cloudy,4.3,6.8,ESE,2.5,0.1,100,27.2,81.0,10.0,6.0,5.0,06:46 AM,07:06 PM,06:04 PM,05:01 AM
70,Guinea-Bissau,Bissau,11.85,-15.58,Africa/Bissau,28.0,82.4,Light rain,6.9,11.2,S,0.5,0.02,84,32.3,90.1,9.0,5.0,6.0,06:52 AM,07:15 PM,06:15 PM,05:05 AM
71,Guyana,Georgetown,6.8,-58.17,America/Guyana,24.0,75.2,Mist,2.2,3.6,N,1.8,0.07,100,26.3,79.4,5.0,3.0,1.0,05:46 AM,06:01 PM,05:05 PM,04:12 AM
72,Haiti,Port-Au-Prince,18.54,-72.34,America/Port-au-Prince,27.0,80.6,Clear,9.4,15.1,ESE,0.0,0.0,89,32.1,89.8,9.0,5.0,1.0,06:34 AM,07:06 PM,06:21 PM,04:50 AM
73,Vatican City,Vatican City,41.9,12.45,Europe/Rome,21.0,69.8,Moderate rain,2.2,3.6,WSW,0.9,0.04,88,21.0,69.8,4.0,2.0,5.0,06:32 AM,07:50 PM,07:22 PM,03:54 AM
74,Honduras,Tegucigalpa,14.1,-87.22,America/Tegucigalpa,21.0,69.8,Partly cloudy,3.8,6.1,SE,0.0,0.0,88,21.0,69.8,10.0,6.0,1.0,05:37 AM,06:02 PM,05:16 PM,04:00 AM
75,Hungary,Budapest,47.5,19.08,Europe/Budapest,20.0,68.0,Light rain shower,6.9,11.2,SSW,0.1,0.0,88,20.0,68.0,10.0,6.0,5.0,05:58 AM,07:31 PM,07:13 PM,03:03 AM
76,Iceland,Hella,63.83,-20.4,Atlantic/Reykjavik,11.0,51.8,Sunny,4.3,6.8,E,0.0,0.0,82,10.5,50.9,10.0,6.0,3.0,05:56 AM,08:48 PM,09:30 PM,01:26 AM
77,India,New Delhi,28.6,77.2,Asia/Kolkata,34.0,93.2,Mist,4.3,6.8,WSW,0.0,0.0,50,33.4,92.2,5.0,3.0,9.0,05:58 AM,06:46 PM,05:52 PM,03:31 AM
78,Indonesia,Jakarta,-6.21,106.85,Asia/Jakarta,31.0,87.8,Partly cloudy,16.1,25.9,NE,0.0,0.0,63,33.2,91.7,8.0,4.0,8.0,05:55 AM,05:53 PM,04:16 PM,04:07 AM
79,Iran,Tehran,35.73,51.33,Asia/Tehran,33.0,91.4,Partly cloudy,9.4,15.1,SE,0.0,0.0,15,30.9,87.5,10.0,6.0,8.0,05:34 AM,06:37 PM,05:55 PM,03:00 AM
80,Iraq,Baghdad,33.34,44.39,Asia/Baghdad,37.0,98.6,Sunny,6.9,11.2,NW,0.0,0.0,24,35.7,96.3,10.0,6.0,9.0,05:35 AM,06:32 PM,05:48 PM,03:06 AM
81,Ireland,Dublin,53.33,-6.25,Europe/Dublin,14.0,57.2,Partly cloudy,13.6,22.0,W,0.0,0.0,88,12.6,54.6,10.0,6.0,4.0,06:28 AM,08:22 PM,08:20 PM,03:20 AM
82,Israel,Jerusalem,31.78,35.23,Asia/Jerusalem,30.0,86.0,Partly cloudy,12.5,20.2,W,0.0,0.0,62,32.4,90.3,10.0,6.0,7.0,06:12 AM,07:07 PM,06:22 PM,03:49 AM
83,Italy,Rome,41.9,12.48,Europe/Rome,21.0,69.8,Moderate rain,2.2,3.6,WSW,0.9,0.04,88,21.0,69.8,4.0,2.0,5.0,06:32 AM,07:49 PM,07:22 PM,03:54 AM
84,Jamaica,Norman Gardens,17.97,-76.75,America/Jamaica,30.0,86.0,Partly cloudy,13.6,22.0,ESE,0.0,0.0,84,42.7,108.8,10.0,6.0,1.0,05:52 AM,06:23 PM,05:39 PM,04:09 AM
85,Japan,Tokyo,35.69,139.69,Asia/Tokyo,32.0,89.6,Partly cloudy,9.4,15.1,S,0.0,0.0,59,37.9,100.3,10.0,6.0,7.0,05:11 AM,06:14 PM,05:22 PM,02:17 AM
86,Jordan,Amman,31.95,35.93,Asia/Amman,27.0,80.6,Partly cloudy,11.9,19.1,W,0.0,0.0,51,27.2,81.0,6.0,3.0,7.0,06:09 AM,07:05 PM,06:19 PM,03:45 AM
87,Kazakhstan,Astana,51.18,71.43,Asia/Almaty,22.0,71.6,Partly cloudy,19.2,31.0,SSW,0.0,0.0,29,23.5,74.3,10.0,6.0,5.0,06:22 AM,08:08 PM,07:54 PM,03:01 AM
88,Kenya,Nairobi,-1.28,36.82,Africa/Nairobi,21.0,69.8,Partly cloudy,10.5,16.9,SSE,0.0,0.0,43,21.0,69.8,10.0,6.0,6.0,06:31 AM,06:36 PM,05:17 PM,04:50 AM
89,Kiribati,Tarawa,-0.88,169.53,Pacific/Tarawa,28.9,84.0,Light rain shower,10.3,16.6,E,0.2,0.01,77,33.7,92.7,10.0,6.0,1.0,06:40 AM,06:46 PM,05:04 PM,04:35 AM
90,Kuwait,Kuwait City,29.37,47.96,Asia/Kuwait,39.6,103.3,Sunny,2.2,3.6,SE,0.0,0.0,23,40.3,104.5,10.0,6.0,9.0,05:24 AM,06:14 PM,05:25 PM,03:01 AM
91,Kyrghyzstan,Bishkek,42.87,74.6,Asia/Bishkek,27.4,81.3,Sunny,6.0,9.7,NNE,0.0,0.0,20,25.6,78.1,10.0,6.0,7.0,06:22 AM,07:43 PM,07:10 PM,03:28 AM
92,Indonesia,Laos,-8.18,114.32,Asia/Jakarta,27.9,82.2,Sunny,7.6,12.2,SSE,0.0,0.0,60,29.6,85.3,10.0,6.0,7.0,05:26 AM,05:22 PM,03:42 PM,03:40 AM
93,Latvia,Riga,56.95,24.1,Europe/Riga,16.0,60.8,Light rain,5.6,9.0,SE,0.0,0.0,94,16.0,60.8,10.0,6.0,5.0,06:19 AM,08:29 PM,08:37 PM,02:42 AM
94,Lebanon,Beirut,33.87,35.51,Asia/Beirut,30.0,86.0,Partly cloudy,15.0,24.1,SW,0.0,0.0,62,34.0,93.2,6.0,3.0,7.0,06:09 AM,07:08 PM,06:26 PM,03:42 AM
95,Lesotho,Maseru,-29.32,27.48,Africa/Johannesburg,18.9,66.0,Sunny,2.7,4.3,W,0.0,0.0,15,18.9,66.0,10.0,6.0,5.0,06:29 AM,05:54 PM,04:06 PM,05:24 AM
96,Liberia,Monrovia,6.31,-10.8,Africa/Monrovia,25.0,77.0,Partly cloudy,2.2,3.6,N,1.3,0.05,94,27.0,80.6,10.0,6.0,6.0,06:36 AM,06:52 PM,05:47 PM,04:55 AM
97,Thailand,Nan,18.78,100.78,Asia/Bangkok,33.0,91.4,Partly cloudy,2.2,3.6,S,4.8,0.19,63,51.4,124.6,10.0,6.0,6.0,06:01 AM,06:34 PM,05:25 PM,03:44 AM
98,Liechtenstein,Vaduz,47.13,9.52,Europe/Vaduz,12.0,53.6,Light rain,4.3,6.8,E,0.2,0.01,100,12.5,54.4,10.0,6.0,2.0,06:36 AM,08:08 PM,07:51 PM,03:45 AM
99,Lithuania,Vilnius,54.68,25.32,Europe/Vilnius,17.0,62.6,Moderate or heavy rain with thunder,8.1,13.0,NNE,0.1,0.0,94,17.0,62.6,10.0,6.0,5.0,06:19 AM,08:19 PM,08:19 PM,02:55 AM
100,Luxembourg,Luxembourg,49.61,6.13,Europe/Luxembourg,16.0,60.8,Partly cloudy,6.9,11.2,NW,0.1,0.0,77,16.0,60.8,10.0,6.0,4.0,06:46 AM,08:26 PM,08:13 PM,03:48 AM
101,Madagascar,Antananarivo,-18.92,47.52,Indian/Antananarivo,21.0,69.8,Partly cloudy,15.0,24.1,SE,0.2,0.01,56,21.0,69.8,10.0,6.0,4.0,06:01 AM,05:42 PM,04:02 PM,04:38 AM
102,Malawi,Lilongwe,-13.98,33.78,Africa/Blantyre,18.0,64.4,Partly cloudy,11.9,19.1,SW,0.0,0.0,88,18.0,64.4,10.0,6.0,6.0,05:52 AM,05:40 PM,04:09 PM,04:25 AM
103,Malaysia,Kuala Lumpur,3.17,101.7,Asia/Kuala_Lumpur,27.0,80.6,Moderate or heavy rain with thunder,2.2,3.6,SW,1.4,0.06,89,29.4,84.9,9.0,5.0,6.0,07:09 AM,07:20 PM,05:54 PM,05:11 AM
104,Maldives,Farukolhufunadhoo,6.15,73.27,Indian/Maldives,25.3,77.5,Torrential rain shower,26.6,42.8,WNW,9.4,0.37,87,28.1,82.6,3.0,1.0,6.0,06:01 AM,06:15 PM,04:57 PM,04:04 AM
105,Mali,Bamako,12.65,-8.0,Africa/Bamako,23.0,73.4,Light rain,8.1,13.0,SSW,2.3,0.09,100,25.1,77.3,10.0,6.0,5.0,06:21 AM,06:45 PM,05:46 PM,04:31 AM
106,Malta,Valletta,35.9,14.51,Europe/Malta,28.0,82.4,Partly cloudy,12.5,20.2,WNW,0.0,0.0,42,29.3,84.7,10.0,6.0,7.0,06:31 AM,07:34 PM,06:57 PM,04:04 AM
107,Marshall Islands,Majuro,7.1,171.38,Pacific/Majuro,29.0,84.2,Overcast,6.9,11.2,ENE,0.0,0.0,75,33.8,92.8,24.0,14.0,1.0,06:27 AM,06:44 PM,05:11 PM,04:12 AM
108,Mauritania,Nouakchott,18.09,-15.98,Africa/Nouakchott,28.6,83.5,Sunny,12.3,19.8,SE,0.0,0.0,70,32.0,89.6,10.0,6.0,7.0,06:49 AM,07:21 PM,06:27 PM,04:55 AM
109,Mauritius,Port Louis,-20.16,57.5,Indian/Mauritius,26.0,78.8,Partly cloudy,9.4,15.1,SSE,0.0,0.0,70,27.1,80.8,10.0,6.0,7.0,06:21 AM,06:01 PM,04:18 PM,04:59 AM
110,Mexico,Mexico City,19.43,-99.13,America/Mexico_City,16.0,60.8,Partly cloudy,6.9,11.2,WNW,0.0,0.0,77,16.0,60.8,16.0,9.0,1.0,06:20 AM,06:54 PM,06:14 PM,04:40 AM
111,Micronesia,Palikir,6.92,158.15,Pacific/Pohnpei,26.0,78.8,Light rain,3.8,6.1,NNW,0.3,0.01,100,28.1,82.5,23.0,14.0,1.0,06:20 AM,06:36 PM,05:05 PM,04:08 AM
112,Russia,Chi-Chi-Erh,51.7,94.45,Asia/Krasnoyarsk,36.5,97.7,Overcast,12.8,20.5,SSW,0.0,0.0,12,35.1,95.2,10.0,6.0,8.0,05:49 AM,07:37 PM,07:23 PM,02:20 AM
113,Monaco,Monaco,43.73,7.42,Europe/Monaco,22.0,71.6,Partly cloudy,12.5,20.2,S,0.0,0.0,73,24.5,76.1,10.0,6.0,6.0,06:50 AM,08:12 PM,07:48 PM,04:08 AM
114,Mongolia,Ulaanbaatar,47.92,106.92,Asia/Ulaanbaatar,26.0,78.8,Partly cloudy,6.9,11.2,W,0.0,0.0,32,29.0,84.2,10.0,6.0,4.0,06:05 AM,07:41 PM,07:16 PM,02:48 AM
115,Montenegro,Podgorica,42.44,19.26,Europe/Podgorica,25.0,77.0,Partly cloudy,2.2,3.6,S,0.3,0.01,65,26.3,79.3,10.0,6.0,5.0,06:04 AM,07:23 PM,06:55 PM,03:23 AM
116,Morocco,Rabat,34.03,-6.84,Africa/Casablanca,24.0,75.2,Sunny,6.9,11.2,W,0.0,0.0,78,25.6,78.1,5.0,3.0,6.0,06:59 AM,07:58 PM,07:21 PM,04:40 AM
117,Mozambique,Maputo,-25.97,32.59,Africa/Maputo,21.0,69.8,Partly cloudy,10.5,16.9,SE,0.1,0.0,64,21.0,69.8,10.0,6.0,5.0,06:06 AM,05:36 PM,03:52 PM,04:55 AM
118,Myanmar,Pathein,16.78,94.73,Asia/Yangon,30.0,86.0,Partly cloudy,10.3,16.6,W,0.0,0.0,68,34.7,94.5,10.0,6.0,8.0,05:57 AM,06:27 PM,05:17 PM,03:44 AM
119,Namibia,Windhoek,-22.57,17.08,Africa/Windhoek,20.0,68.0,Sunny,3.8,6.1,WNW,0.0,0.0,43,20.0,68.0,10.0,6.0,7.0,07:05 AM,06:41 PM,05:03 PM,05:52 AM
120,Turkey,Yaren,39.55,27.62,Europe/Istanbul,28.0,82.4,Sunny,2.2,3.6,NNE,0.0,0.0,55,27.0,80.6,10.0,6.0,8.0,06:34 AM,07:46 PM,07:13 PM,03:58 AM
121,Nepal,Kathmandu,27.72,85.32,Asia/Kathmandu,28.0,82.4,Partly cloudy,6.9,11.2,WNW,0.5,0.02,58,32.0,89.6,8.0,4.0,5.0,05:41 AM,06:28 PM,05:32 PM,03:14 AM
122,Netherlands,Amsterdam,52.37,4.89,Europe/Amsterdam,19.0,66.2,Partly cloudy,9.4,15.1,SSW,0.0,0.0,73,19.0,66.2,10.0,6.0,5.0,06:46 AM,08:36 PM,08:30 PM,03:38 AM
123,New Zealand,Wellington,-41.3,174.78,Pacific/Auckland,9.0,48.2,Clear,11.9,19.1,NNE,0.0,0.0,81,6.6,43.9,10.0,6.0,1.0,06:52 AM,05:53 PM,03:13 PM,05:51 AM
124,Nicaragua,Managua,12.15,-86.27,America/Managua,25.0,77.0,Partly cloudy,2.2,3.6,N,0.0,0.0,100,27.8,82.0,10.0,6.0,1.0,05:35 AM,05:57 PM,05:09 PM,04:00 AM
125,Niger,Niamey,13.52,2.12,Africa/Niamey,30.0,86.0,Sunny,11.9,19.1,WSW,0.0,0.0,62,31.8,89.3,10.0,6.0,8.0,06:40 AM,07:05 PM,06:05 PM,04:48 AM
126,Nigeria,Abuja,9.18,7.18,Africa/Lagos,28.0,82.4,Partly cloudy,6.9,11.2,W,0.0,0.0,74,31.6,88.9,10.0,6.0,6.0,06:23 AM,06:42 PM,05:37 PM,04:34 AM
127,North Korea,Pyongyang,39.02,125.75,Asia/Pyongyang,22.0,71.6,Patchy rain possible,6.3,10.1,WSW,0.1,0.0,88,24.5,76.1,10.0,6.0,5.0,06:02 AM,07:13 PM,06:28 PM,03:05 AM
128,Macedonia,Skopje,42.0,21.43,Europe/Skopje,30.0,86.0,Partly cloudy,2.2,3.6,NE,0.0,0.0,43,29.5,85.1,10.0,6.0,8.0,05:56 AM,07:14 PM,06:45 PM,03:16 AM
129,Norway,Oslo,59.92,10.75,Europe/Oslo,12.0,53.6,Moderate rain,18.6,29.9,SW,0.0,0.0,94,12.5,54.4,10.0,6.0,4.0,06:04 AM,08:30 PM,08:51 PM,02:10 AM
130,Oman,Muscat,23.61,58.59,Asia/Muscat,33.0,91.4,Sunny,15.0,24.1,NE,0.0,0.0,80,40.9,105.7,9.0,5.0,8.0,05:47 AM,06:27 PM,05:29 PM,03:31 AM
131,Pakistan,Islamabad,33.7,73.17,Asia/Karachi,31.9,89.4,Sunny,3.6,5.8,SW,0.0,0.0,45,33.7,92.7,10.0,6.0,8.0,05:39 AM,06:37 PM,05:51 PM,03:04 AM
132,Palau,Adkip,7.36,134.51,Pacific/Palau,29.0,84.2,Partly cloudy,11.9,19.1,W,0.0,0.0,84,35.3,95.5,14.0,8.0,1.0,05:55 AM,06:11 PM,04:44 PM,03:46 AM
133,Bolivia,National,-11.18,-67.08,America/La_Paz,22.5,72.5,Clear,2.2,3.6,WNW,0.0,0.0,57,24.7,76.5,10.0,6.0,1.0,06:33 AM,06:25 PM,05:15 PM,05:20 AM
134,Panama,Panama City,8.97,-79.53,America/Panama,27.0,80.6,Partly cloudy,3.8,6.1,N,0.6,0.02,89,31.6,88.9,9.0,5.0,1.0,06:10 AM,06:28 PM,05:37 PM,04:37 AM
135,Papua New Guinea,Port Moresby,-9.46,147.19,Pacific/Port_Moresby,24.4,75.9,Clear,17.7,28.4,SE,0.0,0.0,80,26.4,79.5,10.0,6.0,1.0,06:15 AM,06:09 PM,04:22 PM,04:25 AM
136,Paraguay,Carreria,-21.55,-58.12,America/Asuncion,22.8,73.0,Overcast,2.9,4.7,SE,0.0,0.0,40,24.2,75.6,10.0,6.0,1.0,06:05 AM,05:43 PM,04:20 PM,05:02 AM
137,Peru,Lima,-12.05,-77.05,America/Lima,16.2,61.2,Partly cloudy,6.7,10.8,S,0.0,0.0,86,16.2,61.2,10.0,6.0,1.0,06:14 AM,06:05 PM,04:55 PM,05:03 AM
138,Philippines,Manila,14.6,120.98,Asia/Manila,27.0,80.6,Light rain,12.5,20.2,WSW,0.7,0.03,89,30.1,86.3,10.0,6.0,6.0,05:44 AM,06:10 PM,04:53 PM,03:28 AM
139,Poland,Warsaw,52.25,21.0,Europe/Warsaw,22.0,71.6,Partly cloudy,4.3,6.8,SE,0.0,0.0,83,24.5,76.1,10.0,6.0,7.0,05:42 AM,07:32 PM,07:25 PM,02:29 AM
140,Portugal,Lisbon,38.72,-9.13,Europe/Lisbon,21.0,69.8,Partly cloudy,2.2,3.6,N,0.0,0.0,69,21.0,69.8,10.0,6.0,6.0,07:03 AM,08:12 PM,07:42 PM,04:36 AM
141,Qatar,Doha,25.29,51.53,Asia/Qatar,38.0,100.4,Sunny,11.9,19.1,ESE,0.0,0.0,54,42.6,108.7,10.0,6.0,9.0,05:13 AM,05:56 PM,05:01 PM,02:56 AM
142,Romania,Bucharest,44.43,26.1,Europe/Bucharest,35.0,95.0,Sunny,10.5,16.9,ESE,0.0,0.0,32,33.6,92.5,10.0,6.0,9.0,06:34 AM,07:58 PM,07:34 PM,03:47 AM
143,Russia,Moscow,55.75,37.62,Europe/Moscow,16.0,60.8,Partly cloudy,9.4,15.1,SSE,0.0,0.0,68,16.0,60.8,10.0,6.0,3.0,05:28 AM,07:33 PM,07:35 PM,01:55 AM
144,Rwanda,Kigali,-1.95,30.06,Africa/Kigali,26.0,78.8,Partly cloudy,13.6,22.0,SSE,0.0,0.0,34,25.1,77.3,10.0,6.0,7.0,05:59 AM,06:03 PM,04:44 PM,04:19 AM
145,Saint Kitts and Nevis,Basseterre,17.3,-62.72,America/St_Kitts,28.0,82.4,Clear,10.5,16.9,E,0.0,0.0,84,32.0,89.7,10.0,6.0,1.0,05:57 AM,06:27 PM,05:40 PM,04:12 AM
146,Saint Lucia,Castries,14.0,-61.0,America/St_Lucia,27.0,80.6,Partly cloudy,16.1,25.9,ENE,0.4,0.02,89,30.5,86.8,10.0,6.0,1.0,05:52 AM,06:17 PM,05:28 PM,04:11 AM
147,Saint Vincent and the Grenadines,Kingstown,13.13,-61.22,America/St_Vincent,28.8,83.8,Patchy rain possible,18.1,29.2,ENE,0.9,0.04,78,33.7,92.7,9.0,5.0,1.0,05:54 AM,06:18 PM,05:27 PM,04:13 AM
148,Samoa,Apia,-13.83,-171.73,Pacific/Apia,26.0,78.8,Partly cloudy,12.5,20.2,ESE,0.6,0.02,84,28.7,83.7,10.0,6.0,1.0,06:34 AM,06:22 PM,04:22 PM,04:43 AM
149,San Marino,San Marino,43.93,12.45,Europe/Rome,21.0,69.8,Partly cloudy,9.4,15.1,NW,0.0,0.0,64,21.0,69.8,10.0,6.0,6.0,06:29 AM,07:52 PM,07:28 PM,03:46 AM
150,Belgium,'S-Gravenwezel,51.27,4.55,Europe/Brussels,17.0,62.6,Partly cloudy,4.3,6.8,W,0.0,0.0,77,17.0,62.6,10.0,6.0,5.0,06:49 AM,08:35 PM,08:27 PM,03:46 AM
151,Saudi Arabia,Riyadh,24.64,46.77,Asia/Riyadh,42.0,107.6,Sunny,5.6,9.0,SE,0.0,0.0,6,43.0,109.3,10.0,6.0,10.0,05:33 AM,06:15 PM,05:20 PM,03:18 AM
152,Senegal,Dakar,14.67,-17.44,Africa/Dakar,27.0,80.6,Partly cloudy,4.3,6.8,SW,3.6,0.14,89,30.1,86.3,10.0,6.0,6.0,06:57 AM,07:24 PM,06:28 PM,05:07 AM
153,Serbia,Belgrade,44.8,20.47,Europe/Belgrade,24.0,75.2,Partly cloudy,11.9,19.1,SE,0.1,0.0,65,25.3,77.6,10.0,6.0,5.0,05:56 AM,07:21 PM,06:58 PM,03:09 AM
154,Seychelles Islands,Victoria,-4.62,55.45,Indian/Mahe,26.3,79.3,Light rain shower,21.9,35.3,SSE,0.5,0.02,85,29.5,85.1,10.0,6.0,6.0,06:19 AM,06:19 PM,04:54 PM,04:38 AM
155,Sierra Leone,Freetown,8.49,-13.23,Africa/Freetown,24.0,75.2,Partly cloudy,2.2,3.6,SSE,1.5,0.06,100,26.2,79.1,10.0,6.0,6.0,06:45 AM,07:03 PM,06:01 PM,05:01 AM
156,Singapore,Singapore,1.29,103.86,Asia/Singapore,31.0,87.8,Partly cloudy,6.9,11.2,SSE,0.4,0.02,59,37.5,99.6,10.0,6.0,6.0,07:02 AM,07:10 PM,05:42 PM,05:05 AM
157,Slovakia,Bratislava,48.15,17.12,Europe/Bratislava,19.0,66.2,Light rain shower,8.1,13.0,WNW,0.0,0.0,88,19.0,66.2,10.0,6.0,4.0,06:05 AM,07:40 PM,07:23 PM,03:08 AM
158,Slovenia,Ljubljana,46.06,14.51,Europe/Ljubljana,16.0,60.8,Light rain shower,6.9,11.2,W,0.8,0.03,100,16.0,60.8,4.0,2.0,4.0,06:18 AM,07:47 PM,07:26 PM,03:29 AM
159,Solomon Islands,Honiara,-9.43,159.95,Pacific/Guadalcanal,27.0,80.6,Partly cloudy,4.3,6.8,SW,0.1,0.0,79,31.0,87.9,10.0,6.0,1.0,06:24 AM,06:18 PM,04:29 PM,04:32 AM
160,Somalia,Mogadishu,2.07,45.37,Africa/Mogadishu,29.0,84.2,Partly cloudy,17.4,28.1,S,0.0,0.0,84,33.1,91.7,10.0,6.0,7.0,05:55 AM,06:04 PM,04:47 PM,04:08 AM
161,South Africa,Pretoria,-25.75,28.19,Africa/Johannesburg,18.0,64.4,Sunny,4.3,6.8,NE,0.0,0.0,30,18.0,64.4,10.0,6.0,5.0,06:23 AM,05:54 PM,04:10 PM,05:13 AM
162,South Korea,Seoul,37.57,127.0,Asia/Seoul,23.0,73.4,Light rain,4.3,6.8,WSW,0.0,0.0,94,25.2,77.3,10.0,6.0,1.0,05:59 AM,07:07 PM,06:18 PM,03:05 AM
163,Sudan,Juba,12.15,24.45,Africa/Khartoum,31.2,88.2,Sunny,9.8,15.8,SW,0.0,0.0,43,32.1,89.8,10.0,6.0,8.0,06:11 AM,06:34 PM,05:30 PM,04:17 AM
164,Spain,Madrid,40.4,-3.68,Europe/Madrid,20.0,68.0,Sunny,3.8,6.1,SW,0.0,0.0,49,20.0,68.0,10.0,6.0,6.0,07:39 AM,08:52 PM,08:23 PM,05:07 AM
165,Sri Lanka,Colombo,6.93,79.85,Asia/Colombo,31.0,87.8,Partly cloudy,18.6,29.9,WSW,0.1,0.0,66,39.7,103.4,10.0,6.0,6.0,06:04 AM,06:19 PM,05:01 PM,04:05 AM
166,Sudan,Khartoum,15.59,32.53,Africa/Khartoum,30.4,86.7,Partly cloudy,18.1,29.2,SW,0.0,0.0,49,31.9,89.4,10.0,6.0,8.0,05:37 AM,06:05 PM,05:02 PM,03:37 AM
167,Suriname,Paramaribo,5.83,-55.17,America/Paramaribo,25.0,77.0,Partly cloudy,2.2,3.6,N,0.0,0.0,94,28.1,82.6,10.0,6.0,1.0,06:34 AM,06:49 PM,05:51 PM,05:01 AM
168,Sweden,Stockholm,59.33,18.05,Europe/Stockholm,18.0,64.4,Sunny,10.5,16.9,SSW,0.0,0.0,64,18.0,64.4,10.0,6.0,5.0,05:37 AM,07:59 PM,08:17 PM,01:46 AM
169,Switzerland,Bern,46.92,7.47,Europe/Zurich,14.0,57.2,Partly cloudy,2.2,3.6,SSE,0.0,0.0,77,14.7,58.4,10.0,6.0,4.0,06:45 AM,08:16 PM,07:58 PM,03:55 AM
170,Syria,Damascus,33.5,36.3,Asia/Damascus,32.0,89.6,Partly cloudy,11.9,19.1,SSW,0.0,0.0,30,30.0,85.9,10.0,6.0,8.0,06:06 AM,07:05 PM,06:22 PM,03:40 AM
171,Tajikistan,Dushanbe,38.56,68.77,Asia/Dushanbe,32.0,89.6,Sunny,6.9,11.2,ESE,0.0,0.0,17,29.8,85.6,10.0,6.0,8.0,05:51 AM,07:00 PM,06:21 PM,03:07 AM
172,Tanzania,Dodoma,-6.18,35.75,Africa/Dar_es_Salaam,23.0,73.4,Partly cloudy,15.0,24.1,ENE,0.0,0.0,53,24.3,75.7,10.0,6.0,6.0,06:39 AM,06:37 PM,05:14 PM,05:03 AM
173,Thailand,Bangkok,13.75,100.52,Asia/Bangkok,33.0,91.4,Partly cloudy,6.9,11.2,WSW,0.1,0.0,56,37.6,99.6,10.0,6.0,7.0,06:06 AM,06:31 PM,05:17 PM,03:55 AM
174,Indonesia,Murong Timor,-7.56,112.27,Asia/Jakarta,33.5,92.3,Sunny,8.5,13.7,S,0.0,0.0,30,33.2,91.8,10.0,6.0,8.0,05:34 AM,05:31 PM,03:52 PM,03:47 AM
175,Bulgaria,Lom,43.81,23.24,Europe/Bucharest,31.3,88.3,Sunny,4.5,7.2,WSW,0.0,0.0,31,30.4,86.7,10.0,6.0,8.0,06:46 AM,08:09 PM,07:43 PM,04:01 AM
176,Tonga,Nuku`Aloia,-21.13,-175.2,Pacific/Tongatapu,21.0,69.8,Partly cloudy,9.4,15.1,ESE,0.1,0.0,78,21.0,69.8,10.0,6.0,1.0,06:53 AM,06:31 PM,04:22 PM,05:13 AM
177,Trinidad and Tobago,Port Of Spain,10.65,-61.52,America/Port_of_Spain,26.0,78.8,Partly cloudy,2.2,3.6,N,0.1,0.0,89,29.3,84.8,10.0,6.0,1.0,05:57 AM,06:17 PM,05:25 PM,04:19 AM
178,Tunisia,Tunis,36.8,10.18,Africa/Tunis,29.0,84.2,Partly cloudy,15.0,24.1,WSW,0.0,0.0,40,29.2,84.5,10.0,6.0,7.0,05:48 AM,06:52 PM,06:17 PM,03:20 AM
179,Turkey,Ankara,39.93,32.86,Europe/Istanbul,28.0,82.4,Sunny,2.2,3.6,W,0.0,0.0,28,26.4,79.5,10.0,6.0,7.0,06:13 AM,07:26 PM,06:52 PM,03:35 AM
180,Turkmenistan,Ashgabat,37.95,58.38,Asia/Ashgabat,35.0,95.0,Partly cloudy,11.9,19.1,NW,0.0,0.0,19,33.2,91.7,10.0,6.0,8.0,06:33 AM,07:41 PM,07:02 PM,03:53 AM
181,Tuvalu,Funafuti,-8.52,179.22,Pacific/Funafuti,29.0,84.2,Partly cloudy,5.6,9.0,E,0.3,0.01,89,33.9,93.0,10.0,6.0,1.0,06:07 AM,06:02 PM,04:10 PM,04:10 AM
182,Uganda,Kampala,0.32,32.57,Africa/Kampala,25.0,77.0,Partly cloudy,15.0,24.1,SW,1.5,0.06,69,25.9,78.6,10.0,6.0,6.0,06:47 AM,06:54 PM,05:37 PM,05:05 AM
183,Ukraine,Lviv,49.83,24.0,Europe/Kiev,29.4,84.9,Sunny,7.8,12.6,SSE,0.0,0.0,41,29.5,85.1,10.0,6.0,7.0,06:34 AM,08:15 PM,08:02 PM,03:31 AM
184,United Arab Emirates,Abu Dhabi,24.47,54.37,Asia/Dubai,45.0,113.0,Sunny,6.9,11.2,WNW,0.0,0.0,10,73.6,164.4,10.0,6.0,9.0,06:02 AM,06:44 PM,05:48 PM,03:46 AM
185,United Kingdom,London,51.52,-0.11,Europe/London,18.0,64.4,Sunny,8.1,13.0,WSW,0.0,0.0,68,18.0,64.4,10.0,6.0,5.0,06:08 AM,07:54 PM,07:47 PM,03:04 AM
186,United States of America,Washington Park,46.6,-120.49,America/Los_Angeles,23.3,73.9,Clear,9.4,15.1,NNW,0.0,0.0,45,25.1,77.2,16.0,9.0,1.0,06:18 AM,07:47 PM,07:39 PM,04:00 AM
187,Uruguay,Montevideo,-34.86,-56.17,America/Montevideo,7.0,44.6,Clear,6.9,11.2,NE,0.0,0.0,93,5.2,41.3,10.0,6.0,1.0,07:08 AM,06:24 PM,04:46 PM,06:23 AM
188,Uzbekistan,Tashkent,41.32,69.25,Asia/Tashkent,31.0,87.8,Sunny,9.4,15.1,S,0.0,0.0,14,28.8,83.8,10.0,6.0,8.0,05:46 AM,07:02 PM,06:27 PM,02:56 AM
189,Vanuatu,Port Vila,-17.73,168.32,Pacific/Efate,22.0,71.6,Overcast,11.9,19.1,E,2.6,0.1,100,24.5,76.1,10.0,6.0,1.0,05:57 AM,05:39 PM,03:39 PM,04:14 AM
190,Venezuela,Caracas,10.5,-66.92,America/Caracas,25.0,77.0,Partly cloudy,6.9,11.2,NE,0.5,0.02,79,27.4,81.3,10.0,6.0,1.0,06:18 AM,06:39 PM,05:47 PM,04:42 AM
191,Vietnam,Hanoi,21.03,105.85,Asia/Bangkok,30.0,86.0,Sunny,6.9,11.2,E,0.0,0.0,66,33.0,91.3,10.0,6.0,8.0,05:40 AM,06:16 PM,05:08 PM,03:18 AM
192,Yemen,Sanaa,15.35,44.21,Asia/Aden,25.3,77.5,Patchy light rain with thunder,4.0,6.5,SSW,0.2,0.01,31,25.0,77.0,10.0,6.0,6.0,05:50 AM,06:18 PM,05:14 PM,03:48 AM
193,Zambia,Lusaka,-15.42,28.28,Africa/Lusaka,19.8,67.6,Sunny,11.9,19.1,E,0.0,0.0,28,19.8,67.6,10.0,6.0,5.0,06:15 AM,06:01 PM,04:29 PM,04:51 AM
194,Zimbabwe,Harare,-17.82,31.04,Africa/Harare,19.0,66.2,Sunny,10.5,16.9,ESE,0.0,0.0,25,19.0,66.2,10.0,6.0,5.0,06:06 AM,05:49 PM,04:13 PM,04:44 AM
195,Afghanistan,Kabul,34.52,69.18,Asia/Kabul,21.3,70.3,Sunny,2.2,3.6,SSW,0.0,0.0,54,21.3,70.3,10.0,6.0,6.0,05:25 AM,06:23 PM,06:18 PM,04:05 AM
196,Albania,Tirana,41.33,19.82,Europe/Tirane,22.0,71.6,Partly cloudy,3.8,6.1,S,0.0,0.0,73,24.5,76.2,10.0,6.0,1.0,06:05 AM,07:18 PM,07:23 PM,04:48 AM
197,Algeria,Algiers,36.76,3.05,Africa/Algiers,19.0,66.2,Partly cloudy,2.2,3.6,E,0.0,0.0,73,19.0,66.2,10.0,6.0,1.0,06:17 AM,07:20 PM,07:23 PM,05:10 AM
198,Andorra,Andorra La Vella,42.5,1.52,Europe/Andorra,2.9,37.2,Partly cloudy,4.7,7.6,N,0.0,0.0,91,0.8,33.4,10.0,6.0,1.0,07:17 AM,08:32 PM,08:39 PM,06:02 AM
199,Angola,Luanda,-8.84,13.23,Africa/Luanda,21.0,69.8,Partly cloudy,6.9,11.2,SE,0.0,0.0,94,21.0,69.8,8.0,4.0,1.0,06:10 AM,06:05 PM,05:45 PM,05:37 AM
200,Antigua and Barbuda,Saint John's,17.12,-61.85,America/Antigua,29.0,84.2,Partly cloudy,10.5,16.9,E,0.0,0.0,75,33.7,92.7,10.0,6.0,1.0,05:54 AM,06:22 PM,06:24 PM,05:16 AM
201,Argentina,Buenos Aires,-34.59,-58.67,America/Argentina/Buenos_Aires,11.0,51.8,Clear,9.4,15.1,E,0.0,0.0,82,9.9,49.9,10.0,6.0,1.0,07:17 AM,06:35 PM,06:14 PM,07:13 AM
202,Armenia,Yerevan,40.18,44.51,Asia/Yerevan,18.0,64.4,Sunny,3.8,6.1,NE,0.0,0.0,60,18.0,64.4,10.0,6.0,5.0,06:27 AM,07:38 PM,07:40 PM,05:06 AM
203,Australia,Canberra,-35.28,149.22,Australia/Sydney,16.0,60.8,Partly cloudy,9.4,15.1,W,0.0,0.0,55,16.0,60.8,10.0,6.0,5.0,06:26 AM,05:42 PM,04:36 PM,06:00 AM
204,Austria,Vienna,48.2,16.37,Europe/Vienna,15.0,59.0,Light rain,9.4,15.1,WNW,0.0,0.0,82,14.0,57.1,10.0,6.0,1.0,06:09 AM,07:41 PM,07:52 PM,04:42 AM
205,Azerbaijan,Baku,40.4,49.88,Asia/Baku,23.0,73.4,Sunny,13.6,22.0,NNE,0.0,0.0,57,24.8,76.7,10.0,6.0,1.0,06:05 AM,07:17 PM,07:18 PM,04:43 AM
206,Bahamas,Nassau,25.08,-77.35,America/Nassau,30.0,86.0,Moderate or heavy rain with thunder,12.5,20.2,S,0.0,0.0,79,37.8,100.0,10.0,6.0,1.0,06:49 AM,07:31 PM,07:37 PM,06:09 AM
207,Bahrain,Manama,26.24,50.58,Asia/Bahrain,33.0,91.4,Sunny,5.6,9.0,E,0.0,0.0,67,39.8,103.7,10.0,6.0,1.0,05:17 AM,06:00 PM,05:52 PM,04:10 AM
208,Bangladesh,Dhaka,23.72,90.41,Asia/Dhaka,30.6,87.1,Sunny,2.2,3.6,NE,0.0,0.0,61,34.4,93.9,10.0,6.0,8.0,05:40 AM,06:18 PM,06:04 PM,04:27 AM
209,Barbados,Bridgetown,13.1,-59.62,America/Barbados,28.0,82.4,Partly cloudy,16.1,25.9,E,0.3,0.01,89,32.2,90.0,10.0,6.0,1.0,05:47 AM,06:11 PM,06:10 PM,05:12 AM
210,Belarus,Minsk,53.9,27.57,Europe/Minsk,20.0,68.0,Clear,4.3,6.8,ESE,0.0,0.0,88,20.0,68.0,10.0,6.0,1.0,06:14 AM,08:06 PM,08:22 PM,04:31 AM
211,Belgium,Brussels,50.83,4.33,Europe/Brussels,12.0,53.6,Partly cloudy,5.6,9.0,S,0.0,0.0,88,10.9,51.5,10.0,6.0,1.0,06:53 AM,08:33 PM,08:47 PM,05:24 AM
212,Belize,Belmopan,17.25,-88.77,America/Belize,24.4,75.9,Patchy rain possible,2.7,4.3,S,0.1,0.0,91,26.9,80.4,10.0,6.0,1.0,05:41 AM,06:10 PM,06:15 PM,05:08 AM
213,Benin,Porto-Novo,6.48,2.62,Africa/Porto-Novo,26.0,78.8,Partly cloudy,11.9,19.1,WSW,0.1,0.0,89,29.6,85.4,10.0,6.0,1.0,06:43 AM,06:58 PM,06:46 PM,06:01 AM
214,Bhutan,Thimphu,27.48,89.6,Asia/Thimphu,18.3,64.9,Sunny,3.4,5.4,SW,0.0,0.0,65,18.3,64.9,10.0,6.0,5.0,05:40 AM,06:25 PM,06:13 PM,04:24 AM
215,Bolivia,Sucre,-19.04,-65.26,America/La_Paz,13.0,55.4,Clear,4.3,6.8,ENE,0.0,0.0,52,12.7,54.9,10.0,6.0,1.0,06:31 AM,06:13 PM,06:01 PM,06:16 AM
216,Bosnia and Herzegovina,Sarajevo,43.85,18.38,Europe/Sarajevo,16.0,60.8,Partly cloudy,2.2,3.6,SSE,3.5,0.14,88,16.0,60.8,10.0,6.0,1.0,06:07 AM,07:27 PM,07:34 PM,04:47 AM
217,Botswana,Gaborone,-24.65,25.91,Africa/Gaborone,9.0,48.2,Clear,5.6,9.0,ESE,0.0,0.0,66,8.4,47.1,10.0,6.0,1.0,06:30 AM,06:04 PM,05:33 PM,06:08 AM
218,Brazil,Bras,-2.08,-58.17,America/Manaus,26.9,80.4,Clear,3.4,5.4,NE,0.0,0.0,38,26.7,80.1,10.0,6.0,1.0,05:52 AM,05:55 PM,05:49 PM,05:25 AM
219,Brunei Darussalam,Bandar Seri Begawan,4.88,114.93,Asia/Brunei,32.0,89.6,Partly cloudy,8.1,13.0,WSW,0.0,0.0,75,37.5,99.4,10.0,6.0,8.0,06:14 AM,06:27 PM,05:58 PM,05:15 AM
220,Bulgaria,Sofia,42.68,23.32,Europe/Sofia,17.0,62.6,Light rain shower,4.3,6.8,NNW,0.5,0.02,88,17.0,62.6,10.0,6.0,1.0,06:49 AM,08:05 PM,08:11 PM,05:30 AM
221,Burkina Faso,Ouagadougou,12.37,-1.52,Africa/Ouagadougou,24.6,76.3,Clear,11.0,17.6,WSW,0.0,0.0,81,26.6,79.9,10.0,6.0,1.0,05:56 AM,06:18 PM,06:09 PM,05:10 AM
222,Burundi,Bujumbura,-3.38,29.36,Africa/Bujumbura,22.5,72.5,Clear,2.2,3.6,SE,0.0,0.0,57,24.7,76.5,10.0,6.0,1.0,06:02 AM,06:04 PM,05:44 PM,05:23 AM
223,Madagascar,Ivory,-24.37,46.45,Indian/Antananarivo,13.2,55.8,Clear,2.9,4.7,E,0.0,0.0,83,13.4,56.1,10.0,6.0,1.0,06:08 AM,05:42 PM,05:07 PM,05:43 AM
224,Cape Verde,Praia,14.93,-23.51,Atlantic/Cape_Verde,26.0,78.8,Partly cloudy,6.9,11.2,N,0.6,0.02,89,28.9,83.9,10.0,6.0,1.0,06:21 AM,06:48 PM,06:43 PM,05:38 AM
225,Cambodia,Phnom Penh,11.55,104.92,Asia/Phnom_Penh,32.0,89.6,Partly cloudy,8.1,13.0,W,0.0,0.0,67,35.9,96.7,10.0,6.0,8.0,05:50 AM,06:12 PM,05:48 PM,04:46 AM
226,Cameroon,Bafoussam,5.47,10.42,Africa/Douala,16.9,62.4,Mist,2.9,4.7,WNW,0.0,0.0,97,16.9,62.4,2.0,1.0,1.0,06:12 AM,06:26 PM,06:12 PM,05:30 AM
227,Canada,Ottawa,45.42,-75.7,America/Toronto,20.0,68.0,Partly cloudy,5.6,9.0,S,0.0,0.0,88,20.0,68.0,24.0,14.0,1.0,06:21 AM,07:45 PM,08:00 PM,05:22 AM
228,Central African Republic,Bangui,4.37,18.58,Africa/Bangui,23.0,73.4,Partly cloudy,2.2,3.6,N,0.0,0.0,89,25.4,77.7,6.0,3.0,1.0,05:41 AM,05:53 PM,05:37 PM,04:57 AM
229,Chad,N'djamena,12.11,15.05,Africa/Douala,24.0,75.2,Partly cloudy,10.5,16.9,SSE,0.0,0.0,89,26.0,78.8,7.0,4.0,1.0,05:49 AM,06:11 PM,06:00 PM,05:01 AM
230,Chile,Santiago,-33.45,-70.67,America/Santiago,13.0,55.4,Clear,10.5,16.9,S,0.0,0.0,58,13.6,56.4,10.0,6.0,1.0,07:03 AM,06:24 PM,06:06 PM,07:00 AM
231,China,Beijing,39.93,116.39,Asia/Shanghai,29.0,84.2,Sunny,2.2,3.6,ESE,0.0,0.0,43,28.8,83.8,10.0,6.0,7.0,05:40 AM,06:50 PM,06:45 PM,04:03 AM
232,Bulgaria,Bogot,43.32,24.7,Europe/Sofia,18.5,65.3,Patchy light rain with thunder,3.6,5.8,WSW,0.3,0.01,89,18.6,65.5,10.0,6.0,1.0,06:42 AM,08:01 PM,08:06 PM,05:22 AM
233,Comoros,Moroni,-11.7,43.24,Indian/Comoro,23.3,73.9,Patchy rain possible,15.0,24.1,SE,0.2,0.01,82,25.3,77.5,10.0,6.0,1.0,06:12 AM,06:04 PM,05:37 PM,05:37 AM
234,Congo,Brazzaville,-4.26,15.28,Africa/Brazzaville,24.0,75.2,Clear,4.3,6.8,WSW,0.0,0.0,78,25.5,78.0,8.0,4.0,1.0,05:59 AM,06:00 PM,05:42 PM,05:23 AM
235,Costa Rica,San Juan,9.97,-84.08,America/Costa_Rica,23.0,73.4,Fog,4.3,6.8,SW,0.0,0.0,94,25.5,77.9,0.5,0.0,1.0,05:28 AM,05:47 PM,05:49 PM,04:58 AM
236,Croatia,Zagreb,45.8,16.0,Europe/Zagreb,16.0,60.8,Partly cloudy,4.3,6.8,NE,0.0,0.0,88,16.0,60.8,10.0,6.0,1.0,06:14 AM,07:39 PM,07:48 PM,04:51 AM
237,Cuba,Havana,23.13,-82.36,America/Havana,27.0,80.6,Partly cloudy,9.4,15.1,SSW,0.0,0.0,100,31.2,88.1,8.0,4.0,1.0,07:11 AM,07:49 PM,07:55 PM,06:33 AM
238,Cyprus,Nicosia,35.17,33.37,Asia/Nicosia,22.0,71.6,Partly cloudy,4.3,6.8,SW,0.0,0.0,73,24.6,76.2,10.0,6.0,1.0,06:17 AM,07:17 PM,07:16 PM,05:05 AM
239,Czech Republic,Prague,50.08,14.47,Europe/Prague,13.0,55.4,Overcast,6.9,11.2,W,0.1,0.0,94,13.0,55.3,10.0,6.0,1.0,06:13 AM,07:51 PM,08:04 PM,04:43 AM
240,Democratic Republic of Congo,Kinshasa,-4.3,15.3,Africa/Brazzaville,24.0,75.2,Clear,4.3,6.8,WSW,0.0,0.0,78,25.6,78.0,8.0,4.0,1.0,05:59 AM,06:00 PM,05:42 PM,05:23 AM
241,Denmark,Copenhagen,55.67,12.58,Europe/Copenhagen,14.0,57.2,Partly cloudy,3.8,6.1,WNW,0.0,0.0,82,14.4,57.9,10.0,6.0,1.0,06:10 AM,08:09 PM,08:29 PM,04:27 AM
242,Djibouti,Djibouti,11.6,43.15,Africa/Djibouti,33.0,91.4,Partly cloudy,6.9,11.2,NNW,0.2,0.01,53,37.4,99.3,10.0,6.0,7.0,05:57 AM,06:19 PM,06:04 PM,05:05 AM
243,Dominica,Roseau,15.3,-61.4,America/Dominica,28.3,82.9,Light rain shower,12.3,19.8,E,1.0,0.04,79,32.8,91.0,10.0,6.0,1.0,05:53 AM,06:19 PM,06:20 PM,05:16 AM
244,Dominican Republic,Santo Domingo,18.47,-69.9,America/Santo_Domingo,27.0,80.6,Partly cloudy,2.2,3.6,N,0.0,0.0,94,33.0,91.4,10.0,6.0,1.0,06:24 AM,06:56 PM,06:58 PM,05:47 AM
245,Ecuador,Quito,-0.22,-78.5,America/Guayaquil,11.5,52.7,Clear,4.3,6.8,ESE,0.0,0.0,61,11.0,51.8,10.0,6.0,1.0,06:11 AM,06:18 PM,06:15 PM,05:47 AM
246,Egypt,Cairo,30.05,31.25,Africa/Cairo,26.0,78.8,Clear,3.8,6.1,E,0.0,0.0,70,27.5,81.5,6.0,3.0,1.0,06:30 AM,07:21 PM,07:17 PM,05:25 AM
247,El Salvador,San Salvador,13.71,-89.2,America/El_Salvador,27.0,80.6,Partly cloudy,2.2,3.6,SW,0.0,0.0,94,32.8,91.1,10.0,6.0,1.0,05:45 AM,06:09 PM,06:13 PM,05:14 AM
248,Equatorial Guinea,Malabo,3.75,8.78,Africa/Malabo,24.1,75.4,Moderate or heavy rain shower,6.7,10.8,WNW,3.3,0.13,91,26.5,79.7,7.0,4.0,1.0,06:20 AM,06:31 PM,06:17 PM,05:39 AM
249,Eritrea,Asmara,15.33,38.93,Africa/Asmara,18.2,64.8,Clear,2.2,3.6,SSW,0.0,0.0,60,18.2,64.8,10.0,6.0,1.0,06:11 AM,06:38 PM,06:25 PM,05:17 AM
250,Estonia,Tallinn,59.43,24.73,Europe/Tallinn,14.0,57.2,Partly cloudy,6.9,11.2,ENE,0.1,0.0,94,12.7,54.9,10.0,6.0,1.0,06:12 AM,08:30 PM,08:55 PM,04:12 AM
251,Swaziland,Mbabane,-26.32,31.13,Africa/Mbabane,7.6,45.7,Clear,3.6,5.8,WNW,0.0,0.0,87,6.8,44.2,10.0,6.0,1.0,06:11 AM,05:42 PM,05:08 PM,05:49 AM
252,Ethiopia,Addis Ababa,9.03,38.7,Africa/Addis_Ababa,14.0,57.2,Mist,9.4,15.1,WSW,0.0,0.0,100,14.7,58.4,7.0,4.0,1.0,06:17 AM,06:35 PM,06:19 PM,05:27 AM
253,Fiji Islands,Suva,-18.13,178.42,Pacific/Fiji,26.0,78.8,Partly cloudy,16.1,25.9,ESE,0.0,0.0,70,27.9,82.3,10.0,6.0,6.0,06:16 AM,05:59 PM,05:03 PM,05:27 AM
254,Finland,Helsinki,60.18,24.93,Europe/Helsinki,12.0,53.6,Fog,5.6,9.0,NE,0.0,0.0,100,10.5,50.8,10.0,6.0,1.0,06:09 AM,08:31 PM,08:57 PM,04:06 AM
255,France,Paris,48.87,2.33,Europe/Paris,14.0,57.2,Overcast,2.2,3.6,N,0.0,0.0,88,13.6,56.4,10.0,6.0,1.0,07:04 AM,08:38 PM,08:50 PM,05:40 AM
256,Gabon,Libreville,0.38,9.45,Africa/Libreville,25.0,77.0,Partly cloudy,8.1,13.0,SW,0.0,0.0,94,27.6,81.7,10.0,6.0,1.0,06:19 AM,06:26 PM,06:11 PM,05:41 AM
257,Gambia,Banjul,13.45,-16.58,Africa/Banjul,24.0,75.2,Partly cloudy,6.9,11.2,WSW,0.6,0.02,89,26.0,78.8,10.0,6.0,1.0,06:55 AM,07:19 PM,07:13 PM,06:11 AM
258,Georgia,Tbilisi,41.73,44.79,Asia/Tbilisi,20.0,68.0,Sunny,3.8,6.1,NNE,0.1,0.0,83,20.0,68.0,10.0,6.0,1.0,06:24 AM,07:39 PM,07:41 PM,05:01 AM
259,Germany,Berlin,52.52,13.4,Europe/Berlin,14.0,57.2,Clear,5.6,9.0,W,0.0,0.0,94,14.1,57.3,10.0,6.0,1.0,06:13 AM,08:00 PM,08:15 PM,04:38 AM
260,Ghana,Accra,5.55,-0.22,Africa/Accra,26.0,78.8,Partly cloudy,10.5,16.9,WSW,0.0,0.0,89,29.4,84.9,10.0,6.0,1.0,05:55 AM,06:08 PM,05:57 PM,05:14 AM
261,Greece,Athens,37.98,23.72,Europe/Athens,26.0,78.8,Partly cloudy,5.6,9.0,N,0.0,0.0,48,27.1,80.7,10.0,6.0,1.0,06:53 AM,07:58 PM,08:00 PM,05:40 AM
262,Grenada,Saint George's,12.05,-61.75,America/Grenada,27.0,80.6,Partly cloudy,5.6,9.0,E,0.0,0.0,89,29.7,85.4,10.0,6.0,1.0,05:57 AM,06:18 PM,06:18 PM,05:22 AM
263,Guatemala,Guatemala City,14.62,-90.53,America/Guatemala,18.2,64.8,Light drizzle,4.3,6.8,S,1.1,0.04,97,18.2,64.8,10.0,6.0,1.0,05:50 AM,06:15 PM,06:19 PM,05:19 AM
264,Guinea,Conakry,9.51,-13.71,Africa/Conakry,25.0,77.0,Partly cloudy,2.2,3.6,WSW,7.7,0.3,94,27.8,82.0,10.0,6.0,1.0,06:46 AM,07:05 PM,06:57 PM,06:05 AM
265,Guinea-Bissau,Bissau,11.85,-15.58,Africa/Bissau,24.8,76.6,Light rain shower,9.8,15.8,SW,1.0,0.04,89,27.4,81.3,10.0,6.0,1.0,06:52 AM,07:14 PM,07:07 PM,06:09 AM
266,Guyana,Georgetown,6.8,-58.17,America/Guyana,26.0,78.8,Partly cloudy,2.2,3.6,E,0.1,0.0,94,29.1,84.4,10.0,6.0,1.0,05:46 AM,06:01 PM,05:58 PM,05:14 AM
267,Haiti,Port-Au-Prince,18.54,-72.34,America/Port-au-Prince,30.0,86.0,Clear,17.4,28.1,ESE,0.0,0.0,70,39.7,103.5,9.0,5.0,1.0,06:34 AM,07:05 PM,07:09 PM,05:57 AM
268,Vatican City,Vatican City,41.9,12.45,Europe/Rome,17.0,62.6,Light rain,5.6,9.0,NE,0.0,0.0,88,17.0,62.6,10.0,6.0,1.0,06:33 AM,07:48 PM,07:54 PM,05:18 AM
269,Honduras,Tegucigalpa,14.1,-87.22,America/Tegucigalpa,25.0,77.0,Partly cloudy,2.2,3.6,NW,0.8,0.03,74,28.2,82.7,10.0,6.0,1.0,05:37 AM,06:02 PM,06:05 PM,05:06 AM
270,Hungary,Budapest,47.5,19.08,Europe/Budapest,16.0,60.8,Clear,3.8,6.1,N,0.6,0.02,100,16.0,60.8,10.0,6.0,1.0,05:59 AM,07:29 PM,07:39 PM,04:33 AM
271,Iceland,Hella,63.83,-20.4,Atlantic/Reykjavik,10.0,50.0,Light rain shower,11.6,18.7,SSE,0.2,0.01,91,7.5,45.5,10.0,6.0,1.0,05:58 AM,08:44 PM,09:17 PM,03:53 AM
272,India,New Delhi,28.6,77.2,Asia/Kolkata,29.0,84.2,Mist,6.9,11.2,W,0.0,0.0,66,29.6,85.3,3.5,2.0,8.0,05:58 AM,06:45 PM,06:35 PM,04:44 AM
273,Indonesia,Jakarta,-6.21,106.85,Asia/Jakarta,30.0,86.0,Partly cloudy,2.2,3.6,ESE,0.0,0.0,62,34.1,93.3,5.0,3.0,7.0,05:54 AM,05:53 PM,05:18 PM,05:05 AM
274,Iran,Tehran,35.73,51.33,Asia/Tehran,22.0,71.6,Partly cloudy,11.9,19.1,WNW,0.0,0.0,57,22.9,73.2,10.0,6.0,1.0,05:35 AM,06:35 PM,06:33 PM,04:18 AM
275,Iraq,Baghdad,33.34,44.39,Asia/Baghdad,28.0,82.4,Sunny,2.5,4.0,SW,0.0,0.0,35,27.2,80.9,10.0,6.0,1.0,05:35 AM,06:31 PM,06:27 PM,04:22 AM
276,Ireland,Dublin,53.33,-6.25,Europe/Dublin,11.0,51.8,Partly cloudy,12.5,20.2,W,0.0,0.0,94,9.4,48.9,10.0,6.0,1.0,06:30 AM,08:20 PM,08:37 PM,04:59 AM
277,Israel,Jerusalem,31.78,35.23,Asia/Jerusalem,25.0,77.0,Partly cloudy,6.9,11.2,SE,0.0,0.0,79,26.8,80.3,10.0,6.0,1.0,06:13 AM,07:06 PM,07:03 PM,05:04 AM
278,Italy,Rome,41.9,12.48,Europe/Rome,17.0,62.6,Light rain,5.6,9.0,NE,0.0,0.0,88,17.0,62.6,10.0,6.0,1.0,06:33 AM,07:48 PM,07:54 PM,05:17 AM
279,Jamaica,Norman Gardens,17.97,-76.75,America/Jamaica,31.0,87.8,Partly cloudy,18.6,29.9,SE,0.0,0.0,75,43.3,110.0,10.0,6.0,1.0,05:53 AM,06:22 PM,06:26 PM,05:17 AM
280,Japan,Tokyo,35.69,139.69,Asia/Tokyo,34.0,93.2,Partly cloudy,6.9,11.2,S,0.0,0.0,53,40.0,104.1,10.0,6.0,8.0,05:11 AM,06:12 PM,06:01 PM,03:36 AM
281,Jordan,Amman,31.95,35.93,Asia/Amman,21.0,69.8,Clear,2.2,3.6,N,0.0,0.0,69,21.0,69.8,7.0,4.0,1.0,06:10 AM,07:03 PM,07:00 PM,05:01 AM
282,Kazakhstan,Astana,51.18,71.43,Asia/Almaty,16.0,60.8,Light rain,13.6,22.0,SSE,0.0,0.0,77,16.0,60.8,10.0,6.0,3.0,06:23 AM,08:06 PM,08:16 PM,04:36 AM
283,Kenya,Nairobi,-1.28,36.82,Africa/Nairobi,16.0,60.8,Partly cloudy,11.9,19.1,S,0.0,0.0,82,16.0,60.8,10.0,6.0,1.0,06:31 AM,06:36 PM,06:15 PM,05:49 AM
284,Kiribati,Tarawa,-0.88,169.53,Pacific/Tarawa,28.5,83.3,Light rain shower,6.3,10.1,E,1.4,0.06,76,32.7,90.9,10.0,6.0,6.0,06:40 AM,06:45 PM,06:04 PM,05:36 AM
285,Kuwait,Kuwait City,29.37,47.96,Asia/Kuwait,33.2,91.8,Sunny,7.6,12.2,N,0.0,0.0,30,32.8,91.0,10.0,6.0,8.0,05:25 AM,06:13 PM,06:07 PM,04:15 AM
286,Kyrghyzstan,Bishkek,42.87,74.6,Asia/Bishkek,23.0,73.4,Sunny,2.2,3.6,ENE,0.0,0.0,21,22.7,72.9,10.0,6.0,6.0,06:23 AM,07:41 PM,07:42 PM,04:51 AM
287,Indonesia,Laos,-8.18,114.32,Asia/Jakarta,27.5,81.5,Sunny,4.9,7.9,S,0.0,0.0,65,29.5,85.1,10.0,6.0,7.0,05:26 AM,05:22 PM,04:44 PM,04:36 AM
288,Latvia,Riga,56.95,24.1,Europe/Riga,16.0,60.8,Clear,4.3,6.8,E,0.1,0.0,88,16.0,60.8,10.0,6.0,1.0,06:21 AM,08:26 PM,08:47 PM,04:30 AM
289,Lebanon,Beirut,33.87,35.51,Asia/Beirut,28.0,82.4,Partly cloudy,4.3,6.8,SSE,0.0,0.0,62,31.2,88.1,8.0,4.0,1.0,06:10 AM,07:07 PM,07:05 PM,04:59 AM
290,Lesotho,Maseru,-29.32,27.48,Africa/Johannesburg,8.0,46.4,Clear,3.6,5.8,NE,0.0,0.0,30,7.2,45.0,10.0,6.0,1.0,06:27 AM,05:54 PM,05:20 PM,06:09 AM
291,Liberia,Monrovia,6.31,-10.8,Africa/Monrovia,23.3,73.9,Heavy rain,4.3,6.8,SW,17.7,0.7,96,25.7,78.3,5.0,3.0,1.0,06:36 AM,06:51 PM,06:41 PM,05:57 AM
292,Thailand,Nan,18.78,100.78,Asia/Bangkok,26.0,78.8,Partly cloudy,2.2,3.6,SSE,1.8,0.07,94,30.6,87.1,10.0,6.0,5.0,06:02 AM,06:33 PM,06:14 PM,04:52 AM
293,Liechtenstein,Vaduz,47.13,9.52,Europe/Vaduz,12.0,53.6,Overcast,2.2,3.6,SSW,0.0,0.0,100,12.5,54.4,10.0,6.0,1.0,06:38 AM,08:06 PM,08:17 PM,05:15 AM
294,Lithuania,Vilnius,54.68,25.32,Europe/Vilnius,22.0,71.6,Partly cloudy,9.4,15.1,SW,0.0,0.0,73,24.5,76.1,10.0,6.0,1.0,06:21 AM,08:16 PM,08:34 PM,04:37 AM
295,Luxembourg,Luxembourg,49.61,6.13,Europe/Luxembourg,11.0,51.8,Partly cloudy,2.2,3.6,SW,0.0,0.0,100,11.1,52.0,10.0,6.0,1.0,06:47 AM,08:24 PM,08:36 PM,05:21 AM
296,Madagascar,Antananarivo,-18.92,47.52,Indian/Antananarivo,14.0,57.2,Partly cloudy,12.5,20.2,SSE,0.0,0.0,77,12.7,54.9,10.0,6.0,1.0,06:00 AM,05:42 PM,05:10 PM,05:30 AM
297,Malawi,Lilongwe,-13.98,33.78,Africa/Blantyre,12.3,54.1,Clear,7.6,12.2,SSE,0.0,0.0,83,11.1,52.0,10.0,6.0,1.0,05:52 AM,05:40 PM,05:13 PM,05:19 AM
298,Malaysia,Kuala Lumpur,3.17,101.7,Asia/Kuala_Lumpur,28.0,82.4,Partly cloudy,2.2,3.6,SE,0.0,0.0,79,33.7,92.7,10.0,6.0,7.0,07:09 AM,07:20 PM,06:51 PM,06:12 AM
299,Maldives,Farukolhufunadhoo,6.15,73.27,Indian/Maldives,27.7,81.9,Partly cloudy,11.0,17.6,NW,0.0,0.0,72,30.6,87.1,10.0,6.0,7.0,06:00 AM,06:15 PM,05:53 PM,05:07 AM
300,Mali,Bamako,12.65,-8.0,Africa/Bamako,23.0,73.4,Partly cloudy,2.2,3.6,SW,0.0,0.0,100,25.4,77.7,10.0,6.0,1.0,06:21 AM,06:44 PM,06:36 PM,05:37 AM
301,Malta,Valletta,35.9,14.51,Europe/Malta,23.0,73.4,Clear,6.9,11.2,WNW,0.0,0.0,69,25.0,77.0,10.0,6.0,1.0,06:32 AM,07:33 PM,07:35 PM,05:23 AM
302,Marshall Islands,Majuro,7.1,171.38,Pacific/Majuro,31.0,87.8,Overcast,13.6,22.0,E,0.1,0.0,71,39.2,102.6,24.0,14.0,6.0,06:27 AM,06:43 PM,06:06 PM,05:16 AM
303,Mauritania,Nouakchott,18.09,-15.98,Africa/Nouakchott,27.8,82.0,Moderate or heavy rain shower,11.0,17.6,SW,3.7,0.15,78,31.6,88.9,7.0,4.0,1.0,06:49 AM,07:20 PM,07:16 PM,06:02 AM
304,Mauritius,Port Louis,-20.16,57.5,Indian/Mauritius,22.0,71.6,Overcast,8.1,13.0,SE,0.0,0.0,78,24.5,76.1,10.0,6.0,6.0,06:21 AM,06:01 PM,05:27 PM,05:50 AM
305,Mexico,Mexico City,19.43,-99.13,America/Mexico_City,21.0,69.8,Partly cloudy,11.9,19.1,NE,0.0,0.0,49,21.0,69.8,16.0,9.0,1.0,06:21 AM,06:53 PM,07:00 PM,05:48 AM
306,Micronesia,Palikir,6.92,158.15,Pacific/Pohnpei,28.0,82.4,Light rain,6.9,11.2,W,0.1,0.0,89,32.9,91.2,24.0,14.0,6.0,06:20 AM,06:36 PM,06:01 PM,05:12 AM
307,Russia,Chi-Chi-Erh,51.7,94.45,Asia/Krasnoyarsk,21.6,70.9,Partly cloudy,9.4,15.1,N,0.0,0.0,63,21.6,70.9,10.0,6.0,6.0,05:50 AM,07:35 PM,07:45 PM,03:56 AM
308,Monaco,Monaco,43.73,7.42,Europe/Monaco,20.0,68.0,Partly cloudy,13.6,22.0,N,0.2,0.01,68,20.0,68.0,10.0,6.0,1.0,06:51 AM,08:10 PM,08:18 PM,05:34 AM
309,Mongolia,Ulaanbaatar,47.92,106.92,Asia/Ulaanbaatar,18.0,64.4,Sunny,2.2,3.6,N,0.0,0.0,60,18.0,64.4,10.0,6.0,5.0,06:07 AM,07:39 PM,07:43 PM,04:18 AM
310,Montenegro,Podgorica,42.44,19.26,Europe/Podgorica,18.0,64.4,Moderate rain,8.1,13.0,NE,2.4,0.09,94,18.0,64.4,10.0,6.0,1.0,06:05 AM,07:21 PM,07:27 PM,04:47 AM
311,Morocco,Rabat,34.03,-6.84,Africa/Casablanca,21.0,69.8,Partly cloudy,5.6,9.0,SW,0.0,0.0,100,21.0,69.8,5.0,3.0,1.0,06:59 AM,07:56 PM,07:59 PM,05:57 AM
312,Mozambique,Maputo,-25.97,32.59,Africa/Maputo,17.0,62.6,Partly cloudy,4.3,6.8,SW,0.1,0.0,88,17.0,62.6,10.0,6.0,1.0,06:05 AM,05:37 PM,05:03 PM,05:43 AM
313,Myanmar,Pathein,16.78,94.73,Asia/Yangon,29.2,84.6,Light rain shower,5.4,8.6,WSW,0.3,0.01,73,33.9,93.0,10.0,6.0,6.0,05:57 AM,06:26 PM,06:07 PM,04:51 AM
314,Namibia,Windhoek,-22.57,17.08,Africa/Windhoek,16.0,60.8,Clear,11.9,19.1,ENE,0.0,0.0,48,16.0,60.8,10.0,6.0,1.0,07:04 AM,06:41 PM,06:12 PM,06:41 AM
315,Turkey,Yaren,39.55,27.62,Europe/Istanbul,18.0,64.4,Clear,2.2,3.6,N,0.0,0.0,83,18.0,64.4,10.0,6.0,1.0,06:35 AM,07:45 PM,07:47 PM,05:19 AM
316,Nepal,Kathmandu,27.72,85.32,Asia/Kathmandu,23.0,73.4,Partly cloudy,2.2,3.6,N,0.1,0.0,83,25.1,77.2,6.0,3.0,5.0,05:42 AM,06:27 PM,06:16 PM,04:26 AM
317,Netherlands,Amsterdam,52.37,4.89,Europe/Amsterdam,15.0,59.0,Partly cloudy,8.1,13.0,S,0.0,0.0,82,14.1,57.4,10.0,6.0,1.0,06:48 AM,08:33 PM,08:49 PM,05:15 AM
318,New Zealand,Wellington,-41.3,174.78,Pacific/Auckland,13.0,55.4,Partly cloudy,20.6,33.1,N,0.1,0.0,72,10.3,50.5,10.0,6.0,3.0,06:50 AM,05:54 PM,04:35 PM,06:30 AM
319,Nicaragua,Managua,12.15,-86.27,America/Managua,27.0,80.6,Partly cloudy,2.2,3.6,N,0.0,0.0,100,31.0,87.9,10.0,6.0,1.0,05:35 AM,05:57 PM,06:00 PM,05:04 AM
320,Niger,Niamey,13.52,2.12,Africa/Niamey,29.0,84.2,Clear,11.9,19.1,WSW,0.0,0.0,75,31.4,88.6,10.0,6.0,1.0,06:40 AM,07:04 PM,06:56 PM,05:53 AM
321,Nigeria,Abuja,9.18,7.18,Africa/Lagos,23.0,73.4,Patchy light rain with thunder,6.9,11.2,SE,1.8,0.07,94,25.4,77.8,10.0,6.0,1.0,06:23 AM,06:41 PM,06:30 PM,05:38 AM
322,North Korea,Pyongyang,39.02,125.75,Asia/Pyongyang,24.9,76.8,Patchy rain possible,4.9,7.9,WSW,0.1,0.0,69,26.5,79.7,10.0,6.0,5.0,06:03 AM,07:12 PM,07:05 PM,04:26 AM
323,Macedonia,Skopje,42.0,21.43,Europe/Skopje,16.0,60.8,Partly cloudy,2.2,3.6,W,0.0,0.0,88,16.0,60.8,10.0,6.0,1.0,05:57 AM,07:12 PM,07:17 PM,04:39 AM
324,Norway,Oslo,59.92,10.75,Europe/Oslo,13.0,55.4,Partly cloudy,8.1,13.0,E,0.0,0.0,94,13.6,56.4,0.0,0.0,1.0,06:06 AM,08:27 PM,08:53 PM,04:09 AM
325,Oman,Muscat,23.61,58.59,Asia/Muscat,30.0,86.0,Sunny,4.3,6.8,ENE,0.0,0.0,89,36.6,98.0,7.0,4.0,7.0,05:47 AM,06:26 PM,06:15 PM,04:41 AM
326,Pakistan,Islamabad,33.7,73.17,Asia/Karachi,25.7,78.3,Sunny,4.7,7.6,ENE,0.0,0.0,63,27.0,80.6,10.0,6.0,7.0,05:40 AM,06:36 PM,06:30 PM,04:20 AM
327,Palau,Adkip,7.36,134.51,Pacific/Palau,31.0,87.8,Partly cloudy,9.4,15.1,WSW,0.0,0.0,71,40.1,104.3,21.0,13.0,1.0,05:55 AM,06:11 PM,05:40 PM,04:49 AM
328,Bolivia,National,-11.18,-67.08,America/La_Paz,29.0,84.2,Clear,2.2,3.6,W,0.0,0.0,45,29.4,84.9,10.0,6.0,1.0,06:33 AM,06:25 PM,06:17 PM,06:13 AM
329,Panama,Panama City,8.97,-79.53,America/Panama,29.0,84.2,Partly cloudy,4.3,6.8,NW,0.0,0.0,84,37.0,98.5,10.0,6.0,1.0,06:10 AM,06:27 PM,06:28 PM,05:40 AM
330,Papua New Guinea,Port Moresby,-9.46,147.19,Pacific/Port_Moresby,30.0,86.0,Mist,11.9,19.1,SSE,0.0,0.0,55,33.9,92.9,10.0,6.0,7.0,06:15 AM,06:09 PM,05:26 PM,05:22 AM
331,Paraguay,Carreria,-21.55,-58.12,America/Asuncion,22.8,73.0,Partly cloudy,4.0,6.5,SE,0.0,0.0,58,24.8,76.6,10.0,6.0,1.0,06:04 AM,05:43 PM,05:29 PM,05:50 AM
332,Peru,Lima,-12.05,-77.05,America/Lima,17.2,63.0,Partly cloudy,10.3,16.6,SSE,0.0,0.0,81,17.2,63.0,10.0,6.0,1.0,06:13 AM,06:05 PM,05:58 PM,05:56 AM
333,Philippines,Manila,14.6,120.98,Asia/Manila,31.0,87.8,Partly cloudy,16.1,25.9,W,28.7,1.13,75,44.7,112.4,10.0,6.0,6.0,05:44 AM,06:10 PM,05:46 PM,04:34 AM
334,Poland,Warsaw,52.25,21.0,Europe/Warsaw,18.0,64.4,Partly cloudy,8.1,13.0,WNW,0.0,0.0,94,18.0,64.4,9.0,5.0,1.0,05:44 AM,07:29 PM,07:44 PM,04:07 AM
335,Portugal,Lisbon,38.72,-9.13,Europe/Lisbon,19.0,66.2,Partly cloudy,6.9,11.2,N,0.0,0.0,78,19.0,66.2,10.0,6.0,1.0,07:04 AM,08:10 PM,08:16 PM,05:57 AM
336,Qatar,Doha,25.29,51.53,Asia/Qatar,34.0,93.2,Sunny,9.4,15.1,E,0.0,0.0,75,43.8,110.8,10.0,6.0,8.0,05:14 AM,05:55 PM,05:47 PM,04:08 AM
337,Romania,Bucharest,44.43,26.1,Europe/Bucharest,22.0,71.6,Partly cloudy,4.3,6.8,ENE,0.0,0.0,65,24.5,76.1,10.0,6.0,1.0,06:35 AM,07:57 PM,08:03 PM,05:13 AM
338,Russia,Moscow,55.75,37.62,Europe/Moscow,14.0,57.2,Overcast,6.9,11.2,NNW,0.0,0.0,88,14.7,58.4,9.0,5.0,1.0,05:30 AM,07:30 PM,07:48 PM,03:39 AM
339,Rwanda,Kigali,-1.95,30.06,Africa/Kigali,18.0,64.4,Partly cloudy,5.6,9.0,NNW,0.0,0.0,60,18.0,64.4,10.0,6.0,1.0,05:59 AM,06:03 PM,05:43 PM,05:18 AM
340,Saint Kitts and Nevis,Basseterre,17.3,-62.72,America/St_Kitts,29.0,84.2,Clear,12.5,20.2,E,0.0,0.0,84,34.0,93.2,10.0,6.0,1.0,05:57 AM,06:26 PM,06:27 PM,05:19 AM
341,Saint Lucia,Castries,14.0,-61.0,America/St_Lucia,28.0,82.4,Partly cloudy,5.6,9.0,ESE,1.0,0.04,84,32.7,90.8,10.0,6.0,1.0,05:52 AM,06:17 PM,06:17 PM,05:16 AM
342,Saint Vincent and the Grenadines,Kingstown,13.13,-61.22,America/St_Vincent,28.9,84.0,Patchy rain possible,19.2,31.0,E,2.0,0.08,75,33.4,92.1,9.0,5.0,1.0,05:54 AM,06:17 PM,06:17 PM,05:18 AM
343,Samoa,Apia,-13.83,-171.73,Pacific/Apia,30.0,86.0,Partly cloudy,5.6,9.0,SE,0.1,0.0,75,36.9,98.5,10.0,6.0,6.0,06:33 AM,06:22 PM,05:28 PM,05:39 AM
344,San Marino,San Marino,43.93,12.45,Europe/Rome,18.0,64.4,Partly cloudy,5.6,9.0,WSW,0.1,0.0,73,18.0,64.4,10.0,6.0,1.0,06:31 AM,07:50 PM,07:58 PM,05:12 AM
345,Belgium,'S-Gravenwezel,51.27,4.55,Europe/Brussels,13.0,55.4,Partly cloudy,4.3,6.8,SSE,0.0,0.0,82,12.5,54.5,10.0,6.0,1.0,06:51 AM,08:33 PM,08:47 PM,05:21 AM
346,Saudi Arabia,Riyadh,24.64,46.77,Asia/Riyadh,30.0,86.0,Sunny,6.9,11.2,NE,0.0,0.0,33,28.2,82.8,10.0,6.0,1.0,05:33 AM,06:14 PM,06:05 PM,04:29 AM
347,Senegal,Dakar,14.67,-17.44,Africa/Dakar,27.8,82.0,Light rain shower,17.2,27.7,SSW,0.2,0.01,80,31.7,89.1,10.0,6.0,1.0,06:57 AM,07:23 PM,07:18 PM,06:13 AM
348,Serbia,Belgrade,44.8,20.47,Europe/Belgrade,18.0,64.4,Clear,3.8,6.1,SE,0.0,0.0,88,18.0,64.4,10.0,6.0,1.0,05:58 AM,07:20 PM,07:27 PM,04:35 AM
349,Seychelles Islands,Victoria,-4.62,55.45,Indian/Mahe,26.0,78.8,Partly cloudy,11.9,19.1,SSE,0.2,0.01,79,28.8,83.9,10.0,6.0,6.0,06:18 AM,06:19 PM,05:54 PM,05:36 AM
350,Sierra Leone,Freetown,8.49,-13.23,Africa/Freetown,23.4,74.1,Heavy rain,8.3,13.3,W,19.6,0.77,96,25.8,78.4,5.0,3.0,1.0,06:45 AM,07:02 PM,06:54 PM,06:04 AM
351,Singapore,Singapore,1.29,103.86,Asia/Singapore,29.0,84.2,Partly cloudy,3.8,6.1,NNW,0.9,0.04,79,33.7,92.6,10.0,6.0,6.0,07:01 AM,07:10 PM,06:39 PM,06:06 AM
352,Slovakia,Bratislava,48.15,17.12,Europe/Bratislava,15.0,59.0,Partly cloudy,15.0,24.1,NW,0.0,0.0,88,13.7,56.6,10.0,6.0,1.0,06:06 AM,07:38 PM,07:49 PM,04:39 AM
353,Slovenia,Ljubljana,46.06,14.51,Europe/Ljubljana,14.0,57.2,Overcast,2.2,3.6,NNE,0.0,0.0,94,14.7,58.4,10.0,6.0,1.0,06:19 AM,07:45 PM,07:54 PM,04:57 AM
354,Solomon Islands,Honiara,-9.43,159.95,Pacific/Guadalcanal,27.7,81.9,Light rain shower,2.7,4.3,NNE,1.5,0.06,77,31.2,88.2,10.0,6.0,6.0,06:24 AM,06:18 PM,05:33 PM,05:29 AM
355,Somalia,Mogadishu,2.07,45.37,Africa/Mogadishu,24.1,75.4,Light rain shower,17.0,27.4,SW,0.4,0.02,84,26.2,79.2,10.0,6.0,5.0,05:55 AM,06:04 PM,05:44 PM,05:09 AM
356,South Africa,Pretoria,-25.75,28.19,Africa/Johannesburg,9.0,48.2,Clear,6.9,11.2,ESE,0.0,0.0,76,8.3,46.9,10.0,6.0,1.0,06:22 AM,05:54 PM,05:22 PM,06:00 AM
357,South Korea,Seoul,37.57,127.0,Asia/Seoul,25.0,77.0,Partly cloudy,3.8,6.1,WNW,0.2,0.01,79,26.5,79.8,10.0,6.0,6.0,06:00 AM,07:05 PM,06:57 PM,04:24 AM
358,Sudan,Juba,12.15,24.45,Africa/Khartoum,24.0,75.2,Patchy rain possible,8.5,13.7,W,0.2,0.01,76,25.8,78.4,9.0,5.0,1.0,06:11 AM,06:34 PM,06:21 PM,05:22 AM
359,Spain,Madrid,40.4,-3.68,Europe/Madrid,18.0,64.4,Clear,4.3,6.8,ENE,0.0,0.0,45,18.0,64.4,10.0,6.0,1.0,07:40 AM,08:50 PM,08:57 PM,06:29 AM
360,Sri Lanka,Colombo,6.93,79.85,Asia/Colombo,26.0,78.8,Partly cloudy,6.9,11.2,SE,4.1,0.16,94,28.8,83.8,9.0,5.0,6.0,06:04 AM,06:19 PM,05:56 PM,05:08 AM
361,Sudan,Khartoum,15.59,32.53,Africa/Khartoum,26.2,79.2,Partly cloudy,30.0,48.2,SSE,0.0,0.0,70,28.1,82.6,10.0,6.0,1.0,05:37 AM,06:04 PM,05:52 PM,04:43 AM
362,Suriname,Paramaribo,5.83,-55.17,America/Paramaribo,27.0,80.6,Partly cloudy,4.3,6.8,E,0.0,0.0,89,32.3,90.1,10.0,6.0,1.0,06:34 AM,06:48 PM,06:44 PM,06:02 AM
363,Sweden,Stockholm,59.33,18.05,Europe/Stockholm,14.0,57.2,Light rain,2.2,3.6,N,0.4,0.02,94,14.7,58.4,10.0,6.0,1.0,05:39 AM,07:57 PM,08:21 PM,03:42 AM
364,Switzerland,Bern,46.92,7.47,Europe/Zurich,10.0,50.0,Overcast,4.3,6.8,ESE,0.0,0.0,100,10.3,50.5,10.0,6.0,1.0,06:46 AM,08:14 PM,08:24 PM,05:24 AM
365,Syria,Damascus,33.5,36.3,Asia/Damascus,20.0,68.0,Clear,18.6,29.9,SW,0.0,0.0,88,20.0,68.0,10.0,6.0,1.0,06:07 AM,07:03 PM,07:01 PM,04:56 AM
366,Tajikistan,Dushanbe,38.56,68.77,Asia/Dushanbe,20.0,68.0,Sunny,2.2,3.6,NNE,0.0,0.0,56,20.0,68.0,9.0,5.0,6.0,05:52 AM,06:59 PM,06:57 PM,04:28 AM
367,Tanzania,Dodoma,-6.18,35.75,Africa/Dar_es_Salaam,18.0,64.4,Partly cloudy,9.4,15.1,ENE,0.0,0.0,68,18.0,64.4,10.0,6.0,1.0,06:38 AM,06:37 PM,06:14 PM,06:00 AM
368,Thailand,Bangkok,13.75,100.52,Asia/Bangkok,31.0,87.8,Partly cloudy,4.3,6.8,SSW,0.0,0.0,71,34.9,94.8,10.0,6.0,8.0,06:06 AM,06:31 PM,06:09 PM,05:02 AM
369,Indonesia,Murong Timor,-7.56,112.27,Asia/Jakarta,30.1,86.2,Sunny,2.2,3.6,NNE,0.0,0.0,49,31.4,88.5,10.0,6.0,8.0,05:34 AM,05:31 PM,04:54 PM,04:44 AM
370,Bulgaria,Lom,43.81,23.24,Europe/Bucharest,17.8,64.0,Patchy light rain with thunder,3.6,5.8,SE,0.3,0.01,92,17.9,64.2,10.0,6.0,1.0,06:48 AM,08:07 PM,08:13 PM,05:27 AM
371,Tonga,Nuku`Aloia,-21.13,-175.2,Pacific/Tongatapu,26.0,78.8,Partly cloudy,17.4,28.1,E,0.1,0.0,65,27.4,81.4,10.0,6.0,5.0,06:53 AM,06:31 PM,05:32 PM,06:05 AM
372,Trinidad and Tobago,Port Of Spain,10.65,-61.52,America/Port_of_Spain,25.0,77.0,Partly cloudy,2.2,3.6,N,0.0,0.0,94,27.7,81.8,10.0,6.0,1.0,05:57 AM,06:17 PM,06:15 PM,05:23 AM
373,Tunisia,Tunis,36.8,10.18,Africa/Tunis,22.0,71.6,Partly cloudy,3.8,6.1,NW,0.0,0.0,78,24.6,76.2,10.0,6.0,1.0,05:49 AM,06:51 PM,06:54 PM,04:39 AM
374,Turkey,Ankara,39.93,32.86,Europe/Istanbul,18.0,64.4,Clear,2.2,3.6,N,0.0,0.0,56,18.0,64.4,10.0,6.0,1.0,06:14 AM,07:24 PM,07:27 PM,04:56 AM
375,Turkmenistan,Ashgabat,37.95,58.38,Asia/Ashgabat,24.0,75.2,Light rain,11.9,19.1,WNW,0.0,0.0,57,24.8,76.7,10.0,6.0,7.0,06:34 AM,07:40 PM,07:39 PM,05:13 AM
376,Tuvalu,Funafuti,-8.52,179.22,Pacific/Funafuti,28.7,83.7,Patchy rain possible,13.9,22.3,ENE,0.1,0.0,77,33.4,92.1,10.0,6.0,6.0,06:06 AM,06:02 PM,05:14 PM,05:08 AM
377,Uganda,Kampala,0.32,32.57,Africa/Kampala,21.0,69.8,Partly cloudy,3.8,6.1,N,0.0,0.0,83,21.0,69.8,10.0,6.0,1.0,06:47 AM,06:54 PM,06:34 PM,06:04 AM
378,Ukraine,Lviv,49.83,24.0,Europe/Kiev,17.3,63.1,Light rain shower,2.2,3.6,SSW,0.9,0.04,95,17.3,63.1,10.0,6.0,1.0,06:35 AM,08:13 PM,08:25 PM,05:04 AM
379,United Arab Emirates,Abu Dhabi,24.47,54.37,Asia/Dubai,32.0,89.6,Sunny,4.3,6.8,NW,0.0,0.0,46,33.2,91.8,10.0,6.0,8.0,06:03 AM,06:43 PM,06:33 PM,04:57 AM
380,United Kingdom,London,51.52,-0.11,Europe/London,11.0,51.8,Partly cloudy,5.6,9.0,WNW,0.0,0.0,94,9.7,49.5,10.0,6.0,1.0,06:09 AM,07:52 PM,08:07 PM,04:40 AM
381,United States of America,Washington Park,46.6,-120.49,America/Los_Angeles,22.2,72.0,Overcast,6.9,11.2,NNW,0.0,0.0,40,24.6,76.3,16.0,9.0,1.0,06:19 AM,07:45 PM,08:04 PM,05:29 AM
382,Uruguay,Montevideo,-34.86,-56.17,America/Montevideo,9.0,48.2,Clear,6.9,11.2,E,0.0,0.0,100,7.1,44.7,7.0,4.0,1.0,07:07 AM,06:24 PM,06:03 PM,07:03 AM
383,Uzbekistan,Tashkent,41.32,69.25,Asia/Tashkent,22.0,71.6,Partly cloudy,2.5,4.0,S,0.0,0.0,41,22.4,72.3,10.0,6.0,7.0,05:47 AM,07:00 PM,07:01 PM,04:18 AM
384,Vanuatu,Port Vila,-17.73,168.32,Pacific/Efate,24.0,75.2,Heavy rain,12.5,20.2,E,3.0,0.12,89,26.2,79.1,1.0,0.0,5.0,05:56 AM,05:40 PM,04:46 PM,05:08 AM
385,Venezuela,Caracas,10.5,-66.92,America/Caracas,31.0,87.8,Partly cloudy,5.6,9.0,E,0.0,0.0,79,44.8,112.7,10.0,6.0,1.0,06:18 AM,06:38 PM,06:38 PM,05:46 AM
386,Vietnam,Hanoi,21.03,105.85,Asia/Bangkok,31.0,87.8,Sunny,9.4,15.1,N,0.0,0.0,55,34.2,93.5,10.0,6.0,8.0,05:40 AM,06:15 PM,05:57 PM,04:27 AM
387,Yemen,Sanaa,15.35,44.21,Asia/Aden,18.8,65.8,Partly cloudy,2.5,4.0,W,0.0,0.0,40,18.8,65.8,10.0,6.0,5.0,05:51 AM,06:17 PM,06:04 PM,04:54 AM
388,Zambia,Lusaka,-15.42,28.28,Africa/Lusaka,12.5,54.5,Clear,10.7,17.3,E,0.0,0.0,67,10.7,51.3,10.0,6.0,1.0,06:14 AM,06:01 PM,05:35 PM,05:44 AM
389,Zimbabwe,Harare,-17.82,31.04,Africa/Harare,8.1,46.6,Clear,8.5,13.7,ESE,0.0,0.0,80,5.7,42.3,10.0,6.0,1.0,06:05 AM,05:49 PM,05:20 PM,05:36 AM
390,Afghanistan,Kabul,34.52,69.18,Asia/Kabul,18.1,64.6,Clear,2.2,3.6,WSW,0.0,0.0,40,18.1,64.6,10.0,6.0,1.0,05:25 AM,06:23 PM,06:18 PM,04:05 AM
391,Albania,Tirana,41.33,19.82,Europe/Tirane,20.0,68.0,Patchy light rain with thunder,2.2,3.6,N,4.5,0.18,100,20.0,68.0,10.0,6.0,1.0,06:05 AM,07:18 PM,07:23 PM,04:48 AM
392,Algeria,Algiers,36.76,3.05,Africa/Algiers,23.0,73.4,Partly cloudy,2.5,4.0,SSE,0.0,0.0,78,25.0,77.0,10.0,6.0,1.0,06:17 AM,07:20 PM,07:23 PM,05:10 AM
393,Andorra,Andorra La Vella,42.5,1.52,Europe/Andorra,5.1,41.2,Mist,2.2,3.6,N,0.0,0.0,95,5.1,41.2,2.0,1.0,1.0,07:17 AM,08:32 PM,08:39 PM,06:02 AM
394,Angola,Luanda,-8.84,13.23,Africa/Luanda,22.0,71.6,Partly cloudy,4.3,6.8,W,0.1,0.0,88,24.5,76.1,8.0,4.0,1.0,06:10 AM,06:05 PM,05:45 PM,05:37 AM
395,Antigua and Barbuda,Saint John's,17.12,-61.85,America/Antigua,29.0,84.2,Overcast,9.4,15.1,E,0.1,0.0,79,34.1,93.4,10.0,6.0,1.0,05:54 AM,06:22 PM,06:24 PM,05:16 AM
396,Argentina,Buenos Aires,-34.59,-58.67,America/Argentina/Buenos_Aires,16.0,60.8,Clear,2.2,3.6,NE,0.0,0.0,51,16.0,60.8,10.0,6.0,1.0,07:17 AM,06:35 PM,06:14 PM,07:13 AM
397,Armenia,Yerevan,40.18,44.51,Asia/Yerevan,21.0,69.8,Clear,5.6,9.0,NE,0.0,0.0,46,21.0,69.8,10.0,6.0,1.0,06:27 AM,07:38 PM,07:40 PM,05:06 AM
398,Australia,Canberra,-35.28,149.22,Australia/Sydney,8.0,46.4,Partly cloudy,4.3,6.8,N,0.0,0.0,100,8.0,46.5,10.0,6.0,3.0,06:26 AM,05:42 PM,04:36 PM,06:00 AM
399,Austria,Vienna,48.2,16.37,Europe/Vienna,17.0,62.6,Clear,8.1,13.0,NW,0.0,0.0,63,17.0,62.6,10.0,6.0,1.0,06:09 AM,07:41 PM,07:52 PM,04:42 AM
400,Azerbaijan,Baku,40.4,49.88,Asia/Baku,22.5,72.5,Clear,7.8,12.6,S,0.0,0.0,57,24.7,76.5,10.0,6.0,1.0,06:05 AM,07:17 PM,07:18 PM,04:43 AM
401,Bahamas,Nassau,25.08,-77.35,America/Nassau,31.0,87.8,Partly cloudy,8.1,13.0,WSW,0.0,0.0,75,40.7,105.3,10.0,6.0,8.0,06:49 AM,07:31 PM,07:37 PM,06:09 AM
402,Bahrain,Manama,26.24,50.58,Asia/Bahrain,34.0,93.2,Clear,8.1,13.0,NNW,0.0,0.0,71,45.3,113.6,10.0,6.0,1.0,05:17 AM,06:00 PM,05:52 PM,04:10 AM
403,Bangladesh,Dhaka,23.72,90.41,Asia/Dhaka,29.6,85.3,Partly cloudy,2.5,4.0,S,0.0,0.0,70,34.0,93.2,10.0,6.0,1.0,05:40 AM,06:18 PM,06:04 PM,04:27 AM
404,Barbados,Bridgetown,13.1,-59.62,America/Barbados,28.0,82.4,Partly cloudy,15.0,24.1,ESE,0.0,0.0,89,32.1,89.8,10.0,6.0,1.0,05:47 AM,06:11 PM,06:10 PM,05:12 AM
405,Belarus,Minsk,53.9,27.57,Europe/Minsk,18.0,64.4,Partly cloudy,9.4,15.1,SE,2.4,0.09,100,18.0,64.4,10.0,6.0,1.0,06:14 AM,08:06 PM,08:22 PM,04:31 AM
406,Belgium,Brussels,50.83,4.33,Europe/Brussels,11.0,51.8,Clear,8.1,13.0,SW,0.0,0.0,94,9.5,49.2,10.0,6.0,1.0,06:53 AM,08:33 PM,08:47 PM,05:24 AM
407,Belize,Belmopan,17.25,-88.77,America/Belize,29.0,84.2,Partly cloudy,3.8,6.1,NW,0.1,0.0,89,35.0,95.1,10.0,6.0,6.0,05:41 AM,06:10 PM,06:15 PM,05:08 AM
408,Benin,Porto-Novo,6.48,2.62,Africa/Porto-Novo,26.0,78.8,Partly cloudy,11.9,19.1,SW,2.2,0.09,89,29.8,85.7,10.0,6.0,1.0,06:43 AM,06:58 PM,06:46 PM,06:01 AM
409,Bhutan,Thimphu,27.48,89.6,Asia/Thimphu,10.9,51.6,Mist,2.2,3.6,NNE,0.0,0.0,97,11.2,52.2,2.0,1.0,1.0,05:40 AM,06:25 PM,06:13 PM,04:24 AM
410,Bolivia,Sucre,-19.04,-65.26,America/La_Paz,19.5,67.1,Clear,5.8,9.4,NNE,0.0,0.0,34,19.5,67.1,10.0,6.0,1.0,06:31 AM,06:13 PM,06:01 PM,06:16 AM
411,Bosnia and Herzegovina,Sarajevo,43.85,18.38,Europe/Sarajevo,13.0,55.4,Clear,2.2,3.6,S,0.0,0.0,100,13.0,55.3,10.0,6.0,1.0,06:07 AM,07:27 PM,07:34 PM,04:47 AM
412,Botswana,Gaborone,-24.65,25.91,Africa/Gaborone,10.0,50.0,Clear,9.4,15.1,SSE,0.0,0.0,58,10.1,50.2,10.0,6.0,1.0,06:30 AM,06:04 PM,05:33 PM,06:08 AM
413,Brazil,Bras,-2.08,-58.17,America/Manaus,32.3,90.1,Clear,2.9,4.7,ESE,0.0,0.0,30,31.6,88.9,10.0,6.0,1.0,05:52 AM,05:55 PM,05:49 PM,05:25 AM
414,Brunei Darussalam,Bandar Seri Begawan,4.88,114.93,Asia/Brunei,26.0,78.8,Partly cloudy,4.3,6.8,SW,0.0,0.0,94,29.5,85.1,10.0,6.0,7.0,06:14 AM,06:27 PM,05:58 PM,05:15 AM
415,Bulgaria,Sofia,42.68,23.32,Europe/Sofia,16.0,60.8,Partly cloudy,2.2,3.6,N,0.0,0.0,77,16.0,60.8,10.0,6.0,1.0,06:49 AM,08:05 PM,08:11 PM,05:30 AM
416,Burkina Faso,Ouagadougou,12.37,-1.52,Africa/Ouagadougou,24.1,75.4,Patchy rain possible,11.0,17.6,SSW,1.1,0.04,86,26.2,79.2,9.0,5.0,1.0,05:56 AM,06:18 PM,06:09 PM,05:10 AM
417,Burundi,Bujumbura,-3.38,29.36,Africa/Bujumbura,22.6,72.7,Clear,2.2,3.6,ESE,0.0,0.0,55,24.7,76.5,10.0,6.0,1.0,06:02 AM,06:04 PM,05:44 PM,05:23 AM
418,Madagascar,Ivory,-24.37,46.45,Indian/Antananarivo,15.8,60.4,Clear,4.7,7.6,ENE,0.0,0.0,72,15.8,60.4,10.0,6.0,1.0,06:08 AM,05:42 PM,05:07 PM,05:43 AM
419,Cape Verde,Praia,14.93,-23.51,Atlantic/Cape_Verde,27.0,80.6,Partly cloudy,9.4,15.1,W,0.0,0.0,89,31.2,88.1,10.0,6.0,1.0,06:21 AM,06:48 PM,06:43 PM,05:38 AM
420,Cambodia,Phnom Penh,11.55,104.92,Asia/Phnom_Penh,28.0,82.4,Partly cloudy,2.2,3.6,WSW,0.0,0.0,84,32.7,90.9,10.0,6.0,7.0,05:50 AM,06:12 PM,05:48 PM,04:46 AM
421,Cameroon,Bafoussam,5.47,10.42,Africa/Douala,17.1,62.8,Moderate or heavy rain shower,3.4,5.4,W,2.8,0.11,97,17.1,62.8,7.0,4.0,1.0,06:12 AM,06:26 PM,06:12 PM,05:30 AM
422,Canada,Ottawa,45.42,-75.7,America/Toronto,16.0,60.8,Partly cloudy,17.4,28.1,NNW,0.0,0.0,77,16.0,60.8,24.0,14.0,5.0,06:21 AM,07:45 PM,08:00 PM,05:22 AM
423,Central African Republic,Bangui,4.37,18.58,Africa/Bangui,25.0,77.0,Clear,2.2,3.6,SW,0.3,0.01,89,27.7,81.8,10.0,6.0,1.0,05:41 AM,05:53 PM,05:37 PM,04:57 AM
424,Chad,N'djamena,12.11,15.05,Africa/Douala,27.0,80.6,Clear,3.8,6.1,SSW,0.1,0.0,89,30.0,86.1,10.0,6.0,1.0,05:49 AM,06:11 PM,06:00 PM,05:01 AM
425,Chile,Santiago,-33.45,-70.67,America/Santiago,14.0,57.2,Clear,8.1,13.0,SW,0.0,0.0,63,14.6,58.2,10.0,6.0,1.0,07:03 AM,06:24 PM,06:06 PM,07:00 AM
426,China,Beijing,39.93,116.39,Asia/Shanghai,21.0,69.8,Sunny,4.3,6.8,N,0.2,0.01,94,21.0,69.8,10.0,6.0,4.0,05:40 AM,06:50 PM,06:45 PM,04:03 AM
427,Bulgaria,Bogot,43.32,24.7,Europe/Sofia,20.2,68.4,Clear,2.7,4.3,S,0.0,0.0,69,20.2,68.4,10.0,6.0,1.0,06:42 AM,08:01 PM,08:06 PM,05:22 AM
428,Comoros,Moroni,-11.7,43.24,Indian/Comoro,20.8,69.4,Clear,7.4,11.9,SE,0.0,0.0,71,20.8,69.4,10.0,6.0,1.0,06:12 AM,06:04 PM,05:37 PM,05:37 AM
429,Congo,Brazzaville,-4.26,15.28,Africa/Brazzaville,27.1,80.8,Clear,6.7,10.8,WSW,0.0,0.0,48,27.6,81.7,10.0,6.0,1.0,05:59 AM,06:00 PM,05:42 PM,05:23 AM
430,Costa Rica,San Juan,9.97,-84.08,America/Costa_Rica,25.0,77.0,Partly cloudy,5.6,9.0,W,0.3,0.01,83,28.1,82.6,10.0,6.0,5.0,05:28 AM,05:47 PM,05:49 PM,04:58 AM
431,Croatia,Zagreb,45.8,16.0,Europe/Zagreb,17.0,62.6,Light rain,5.6,9.0,NE,0.0,0.0,88,17.0,62.6,10.0,6.0,1.0,06:14 AM,07:39 PM,07:48 PM,04:51 AM
432,Cuba,Havana,23.13,-82.36,America/Havana,31.0,87.8,Partly cloudy,10.5,16.9,SW,0.0,0.0,71,41.9,107.4,9.0,5.0,7.0,07:11 AM,07:49 PM,07:55 PM,06:33 AM
433,Cyprus,Nicosia,35.17,33.37,Asia/Famagusta,25.0,77.0,Clear,2.2,3.6,N,0.0,0.0,83,26.9,80.5,10.0,6.0,1.0,06:17 AM,07:17 PM,07:16 PM,05:05 AM
434,Czech Republic,Prague,50.08,14.47,Europe/Prague,14.0,57.2,Partly cloudy,9.4,15.1,SSW,0.0,0.0,88,13.5,56.2,10.0,6.0,1.0,06:13 AM,07:51 PM,08:04 PM,04:43 AM
435,Democratic Republic of Congo,Kinshasa,-4.3,15.3,Africa/Brazzaville,26.6,79.9,Clear,6.3,10.1,WSW,0.0,0.0,50,27.2,81.0,10.0,6.0,1.0,05:59 AM,06:00 PM,05:42 PM,05:23 AM
436,Denmark,Copenhagen,55.67,12.58,Europe/Copenhagen,14.0,57.2,Clear,2.5,4.0,SSE,0.0,0.0,88,12.8,55.0,10.0,6.0,1.0,06:10 AM,08:09 PM,08:29 PM,04:27 AM
437,Djibouti,Djibouti,11.6,43.15,Africa/Djibouti,32.5,90.5,Clear,8.1,13.0,NW,0.0,0.0,55,37.1,98.8,10.0,6.0,1.0,05:57 AM,06:19 PM,06:04 PM,05:05 AM
438,Dominica,Roseau,15.3,-61.4,America/Dominica,26.0,78.8,Partly cloudy,2.5,4.0,WNW,0.1,0.0,100,28.4,83.0,10.0,6.0,1.0,05:53 AM,06:19 PM,06:20 PM,05:16 AM
439,Dominican Republic,Santo Domingo,18.47,-69.9,America/Santo_Domingo,29.0,84.2,Partly cloudy,5.6,9.0,SE,0.0,0.0,84,34.2,93.6,10.0,6.0,1.0,06:24 AM,06:56 PM,06:58 PM,05:47 AM
440,Ecuador,Quito,-0.22,-78.5,America/Guayaquil,17.5,63.5,Patchy rain possible,5.1,8.3,N,0.1,0.0,55,17.5,63.5,10.0,6.0,4.0,06:11 AM,06:18 PM,06:15 PM,05:47 AM
441,Egypt,Cairo,30.05,31.25,Africa/Cairo,28.0,82.4,Clear,5.6,9.0,ENE,0.0,0.0,62,29.9,85.9,10.0,6.0,1.0,06:30 AM,07:21 PM,07:17 PM,05:25 AM
442,El Salvador,San Salvador,13.71,-89.2,America/El_Salvador,30.0,86.0,Partly cloudy,4.3,6.8,SW,0.7,0.03,79,40.4,104.8,10.0,6.0,6.0,05:45 AM,06:09 PM,06:13 PM,05:14 AM
443,Equatorial Guinea,Malabo,3.75,8.78,Africa/Malabo,24.6,76.3,Partly cloudy,8.9,14.4,WSW,0.0,0.0,87,26.9,80.4,10.0,6.0,1.0,06:20 AM,06:31 PM,06:17 PM,05:39 AM
444,Eritrea,Asmara,15.33,38.93,Africa/Asmara,17.8,64.0,Patchy rain possible,4.0,6.5,SW,0.1,0.0,65,17.8,64.0,10.0,6.0,1.0,06:11 AM,06:38 PM,06:25 PM,05:17 AM
445,Estonia,Tallinn,59.43,24.73,Europe/Tallinn,18.0,64.4,Light rain shower,4.3,6.8,S,0.0,0.0,100,18.0,64.4,10.0,6.0,1.0,06:12 AM,08:30 PM,08:55 PM,04:12 AM
446,Swaziland,Mbabane,-26.32,31.13,Africa/Mbabane,10.5,50.9,Clear,3.1,5.0,WNW,0.0,0.0,77,10.3,50.5,10.0,6.0,1.0,06:11 AM,05:42 PM,05:08 PM,05:49 AM
447,Ethiopia,Addis Ababa,9.03,38.7,Africa/Addis_Ababa,13.0,55.4,Moderate rain,5.6,9.0,W,0.1,0.0,100,13.6,56.4,10.0,6.0,1.0,06:17 AM,06:35 PM,06:19 PM,05:27 AM
448,Fiji Islands,Suva,-18.13,178.42,Pacific/Fiji,26.0,78.8,Partly cloudy,12.5,20.2,ESE,0.1,0.0,79,28.7,83.7,10.0,6.0,5.0,06:16 AM,05:59 PM,05:03 PM,05:27 AM
449,Finland,Helsinki,60.18,24.93,Europe/Helsinki,18.0,64.4,Mist,4.3,6.8,E,0.0,0.0,100,18.0,64.4,7.0,4.0,1.0,06:09 AM,08:31 PM,08:57 PM,04:06 AM
450,France,Paris,48.87,2.33,Europe/Paris,14.0,57.2,Overcast,2.2,3.6,N,0.0,0.0,72,13.8,56.8,10.0,6.0,1.0,07:04 AM,08:38 PM,08:50 PM,05:40 AM
451,Gabon,Libreville,0.38,9.45,Africa/Libreville,25.0,77.0,Partly cloudy,9.4,15.1,SSW,0.2,0.01,89,27.6,81.7,10.0,6.0,1.0,06:19 AM,06:26 PM,06:11 PM,05:41 AM
452,Gambia,Banjul,13.45,-16.58,Africa/Banjul,25.0,77.0,Partly cloudy,2.2,3.6,N,1.0,0.04,100,27.2,81.0,10.0,6.0,1.0,06:55 AM,07:19 PM,07:13 PM,06:11 AM
453,Georgia,Tbilisi,41.73,44.79,Asia/Tbilisi,19.0,66.2,Clear,2.2,3.6,N,0.0,0.0,83,19.0,66.2,10.0,6.0,1.0,06:24 AM,07:39 PM,07:41 PM,05:01 AM
454,Germany,Berlin,52.52,13.4,Europe/Berlin,14.0,57.2,Clear,4.3,6.8,S,0.3,0.01,88,13.3,56.0,10.0,6.0,1.0,06:13 AM,08:00 PM,08:15 PM,04:38 AM
455,Ghana,Accra,5.55,-0.22,Africa/Accra,26.0,78.8,Overcast,9.4,15.1,SW,0.5,0.02,89,29.5,85.0,10.0,6.0,1.0,05:55 AM,06:08 PM,05:57 PM,05:14 AM
456,Greece,Athens,37.98,23.72,Europe/Athens,26.0,78.8,Clear,2.2,3.6,WNW,0.0,0.0,42,26.7,80.0,10.0,6.0,1.0,06:53 AM,07:58 PM,08:00 PM,05:40 AM
457,Grenada,Saint George's,12.05,-61.75,America/Grenada,29.0,84.2,Partly cloudy,12.5,20.2,E,0.1,0.0,84,35.2,95.4,10.0,6.0,1.0,05:57 AM,06:18 PM,06:18 PM,05:22 AM
458,Guatemala,Guatemala City,14.62,-90.53,America/Guatemala,25.0,77.0,Partly cloudy,6.9,11.2,SSE,1.0,0.04,61,27.9,82.2,10.0,6.0,5.0,05:50 AM,06:15 PM,06:19 PM,05:19 AM
459,Guinea,Conakry,9.51,-13.71,Africa/Conakry,27.0,80.6,Partly cloudy,2.2,3.6,NE,0.0,0.0,89,30.6,87.1,10.0,6.0,1.0,06:46 AM,07:05 PM,06:57 PM,06:05 AM
460,Guinea-Bissau,Bissau,11.85,-15.58,Africa/Bissau,25.0,77.0,Partly cloudy,2.2,3.6,SW,0.2,0.01,94,27.4,81.2,6.0,3.0,1.0,06:52 AM,07:14 PM,07:07 PM,06:09 AM
461,Guyana,Georgetown,6.8,-58.17,America/Guyana,28.0,82.4,Partly cloudy,4.3,6.8,NE,0.0,0.0,84,32.5,90.5,10.0,6.0,1.0,05:46 AM,06:01 PM,05:58 PM,05:14 AM
462,Haiti,Port-Au-Prince,18.54,-72.34,America/Port-au-Prince,27.7,81.9,Overcast,2.2,3.6,S,0.0,0.0,63,29.6,85.3,10.0,6.0,6.0,06:34 AM,07:05 PM,07:09 PM,05:57 AM
463,Vatican City,Vatican City,41.9,12.45,Europe/Rome,20.0,68.0,Partly cloudy,5.6,9.0,SSE,0.1,0.0,73,20.0,68.0,10.0,6.0,1.0,06:33 AM,07:48 PM,07:54 PM,05:18 AM
464,Honduras,Tegucigalpa,14.1,-87.22,America/Tegucigalpa,29.0,84.2,Patchy light rain with thunder,3.8,6.1,ESE,1.5,0.06,55,36.2,97.1,10.0,6.0,5.0,05:37 AM,06:02 PM,06:05 PM,05:06 AM
465,Hungary,Budapest,47.5,19.08,Europe/Budapest,15.0,59.0,Clear,4.3,6.8,W,0.8,0.03,94,15.7,60.2,10.0,6.0,1.0,05:59 AM,07:29 PM,07:39 PM,04:33 AM
466,Iceland,Hella,63.83,-20.4,Atlantic/Reykjavik,10.2,50.4,Overcast,11.9,19.1,SE,0.0,0.0,88,7.8,46.0,10.0,6.0,1.0,05:58 AM,08:44 PM,09:17 PM,03:53 AM
467,India,New Delhi,28.6,77.2,Asia/Kolkata,29.0,84.2,Mist,2.2,3.6,SSW,0.0,0.0,70,30.4,86.8,3.5,2.0,1.0,05:58 AM,06:45 PM,06:35 PM,04:44 AM
468,Indonesia,Jakarta,-6.21,106.85,Asia/Jakarta,24.0,75.2,Mist,3.8,6.1,SW,0.0,0.0,94,25.7,78.2,4.0,2.0,7.0,05:54 AM,05:53 PM,05:18 PM,05:05 AM
469,Iran,Tehran,35.73,51.33,Asia/Tehran,23.0,73.4,Partly cloudy,11.9,19.1,WSW,0.0,0.0,47,24.0,75.2,8.0,4.0,1.0,05:35 AM,06:35 PM,06:33 PM,04:18 AM
470,Iraq,Baghdad,33.34,44.39,Asia/Baghdad,31.0,87.8,Clear,2.5,4.0,SSW,0.0,0.0,29,29.8,85.6,10.0,6.0,1.0,05:35 AM,06:31 PM,06:27 PM,04:22 AM
471,Ireland,Dublin,53.33,-6.25,Europe/Dublin,13.0,55.4,Light rain,3.8,6.1,SSW,0.0,0.0,82,12.8,55.1,10.0,6.0,1.0,06:30 AM,08:20 PM,08:37 PM,04:59 AM
472,Israel,Jerusalem,31.78,35.23,Asia/Jerusalem,25.0,77.0,Clear,2.2,3.6,WNW,0.0,0.0,83,25.6,78.1,10.0,6.0,1.0,06:13 AM,07:06 PM,07:03 PM,05:04 AM
473,Italy,Rome,41.9,12.48,Europe/Rome,20.0,68.0,Partly cloudy,5.6,9.0,SSE,0.0,0.0,73,20.0,68.0,10.0,6.0,1.0,06:33 AM,07:48 PM,07:54 PM,05:17 AM
474,Jamaica,Norman Gardens,17.97,-76.75,America/Jamaica,32.0,89.6,Partly cloudy,19.2,31.0,ESE,0.0,0.0,67,44.0,111.2,10.0,6.0,7.0,05:53 AM,06:22 PM,06:26 PM,05:17 AM
475,Japan,Tokyo,35.69,139.69,Asia/Tokyo,30.0,86.0,Partly cloudy,8.1,13.0,SSW,0.0,0.0,66,34.2,93.6,10.0,6.0,7.0,05:11 AM,06:12 PM,06:01 PM,03:36 AM
476,Jordan,Amman,31.95,35.93,Asia/Amman,24.0,75.2,Clear,2.2,3.6,N,0.0,0.0,36,24.9,76.8,6.0,3.0,1.0,06:10 AM,07:03 PM,07:00 PM,05:01 AM
477,Kazakhstan,Astana,51.18,71.43,Asia/Almaty,8.0,46.4,Clear,16.1,25.9,S,0.0,0.0,76,4.8,40.6,10.0,6.0,1.0,06:23 AM,08:06 PM,08:16 PM,04:36 AM
478,Kenya,Nairobi,-1.28,36.82,Africa/Nairobi,17.0,62.6,Partly cloudy,4.3,6.8,ENE,0.0,0.0,77,17.0,62.6,10.0,6.0,1.0,06:31 AM,06:36 PM,06:15 PM,05:49 AM
479,Kiribati,Tarawa,-0.88,169.53,Pacific/Tarawa,29.1,84.4,Patchy rain possible,9.6,15.5,E,0.2,0.01,73,33.6,92.5,9.0,5.0,6.0,06:40 AM,06:45 PM,06:04 PM,05:36 AM
480,Kuwait,Kuwait City,29.37,47.96,Asia/Kuwait,34.7,94.5,Clear,11.9,19.1,NNW,0.0,0.0,35,36.2,97.2,10.0,6.0,1.0,05:25 AM,06:13 PM,06:07 PM,04:15 AM
481,Kyrghyzstan,Bishkek,42.87,74.6,Asia/Bishkek,15.5,59.9,Overcast,5.8,9.4,WNW,0.0,0.0,72,15.5,59.9,10.0,6.0,1.0,06:23 AM,07:41 PM,07:42 PM,04:51 AM
482,Indonesia,Laos,-8.18,114.32,Asia/Jakarta,20.6,69.1,Partly cloudy,2.7,4.3,SSW,0.0,0.0,93,20.6,69.1,10.0,6.0,6.0,05:26 AM,05:22 PM,04:44 PM,04:36 AM
483,Latvia,Riga,56.95,24.1,Europe/Riga,19.0,66.2,Overcast,4.3,6.8,SE,0.0,0.0,94,19.0,66.2,10.0,6.0,1.0,06:21 AM,08:26 PM,08:47 PM,04:30 AM
484,Lebanon,Beirut,33.87,35.51,Asia/Beirut,27.0,80.6,Partly cloudy,4.3,6.8,ESE,0.0,0.0,79,29.5,85.2,6.0,3.0,1.0,06:10 AM,07:07 PM,07:05 PM,04:59 AM
485,Lesotho,Maseru,-29.32,27.48,Africa/Johannesburg,10.6,51.1,Clear,2.2,3.6,ENE,0.0,0.0,33,11.0,51.8,10.0,6.0,1.0,06:27 AM,05:54 PM,05:20 PM,06:09 AM
486,Liberia,Monrovia,6.31,-10.8,Africa/Monrovia,26.0,78.8,Partly cloudy,2.2,3.6,N,0.3,0.01,89,29.6,85.3,10.0,6.0,1.0,06:36 AM,06:51 PM,06:41 PM,05:57 AM
487,Thailand,Nan,18.78,100.78,Asia/Bangkok,25.0,77.0,Partly cloudy,2.5,4.0,NE,0.2,0.01,100,28.5,83.3,10.0,6.0,1.0,06:02 AM,06:33 PM,06:14 PM,04:52 AM
488,Liechtenstein,Vaduz,47.13,9.52,Europe/Vaduz,16.0,60.8,Partly cloudy,2.2,3.6,SSW,0.5,0.02,68,16.0,60.8,10.0,6.0,1.0,06:38 AM,08:06 PM,08:17 PM,05:15 AM
489,Lithuania,Vilnius,54.68,25.32,Europe/Vilnius,19.0,66.2,Overcast,10.5,16.9,S,0.0,0.0,94,19.0,66.2,10.0,6.0,1.0,06:21 AM,08:16 PM,08:34 PM,04:37 AM
490,Luxembourg,Luxembourg,49.61,6.13,Europe/Luxembourg,10.0,50.0,Clear,8.1,13.0,WNW,0.0,0.0,94,9.3,48.7,10.0,6.0,1.0,06:47 AM,08:24 PM,08:36 PM,05:21 AM
491,Madagascar,Antananarivo,-18.92,47.52,Indian/Antananarivo,13.0,55.4,Partly cloudy,12.5,20.2,SE,0.0,0.0,77,11.9,53.5,10.0,6.0,1.0,06:00 AM,05:42 PM,05:10 PM,05:30 AM
492,Malawi,Lilongwe,-13.98,33.78,Africa/Blantyre,13.0,55.4,Clear,6.9,11.2,S,0.0,0.0,72,12.2,54.0,10.0,6.0,1.0,05:52 AM,05:40 PM,05:13 PM,05:19 AM
493,Malaysia,Kuala Lumpur,3.17,101.7,Asia/Kuala_Lumpur,26.0,78.8,Partly cloudy,2.2,3.6,W,0.4,0.02,89,30.0,85.9,9.0,5.0,1.0,07:09 AM,07:20 PM,06:51 PM,06:12 AM
494,Maldives,Farukolhufunadhoo,6.15,73.27,Indian/Maldives,26.0,78.8,Light rain shower,20.1,32.4,WNW,2.0,0.08,85,29.1,84.4,10.0,6.0,1.0,06:00 AM,06:15 PM,05:53 PM,05:07 AM
495,Mali,Bamako,12.65,-8.0,Africa/Bamako,26.0,78.8,Partly cloudy,2.5,4.0,N,0.0,0.0,89,28.2,82.8,10.0,6.0,1.0,06:21 AM,06:44 PM,06:36 PM,05:37 AM
496,Malta,Valletta,35.9,14.51,Europe/Malta,24.0,75.2,Partly cloudy,8.1,13.0,E,0.0,0.0,83,25.6,78.1,10.0,6.0,1.0,06:32 AM,07:33 PM,07:35 PM,05:23 AM
497,Marshall Islands,Majuro,7.1,171.38,Pacific/Majuro,31.0,87.8,Partly cloudy,5.6,9.0,S,0.3,0.01,71,39.5,103.0,24.0,14.0,6.0,06:27 AM,06:43 PM,06:06 PM,05:16 AM
498,Mauritania,Nouakchott,18.09,-15.98,Africa/Nouakchott,26.3,79.3,Light rain shower,19.0,30.6,SW,0.2,0.01,84,29.4,84.9,10.0,6.0,1.0,06:49 AM,07:20 PM,07:16 PM,06:02 AM
499,Mauritius,Port Louis,-20.16,57.5,Indian/Mauritius,21.0,69.8,Partly cloudy,9.4,15.1,SSE,0.0,0.0,69,21.0,69.8,10.0,6.0,1.0,06:21 AM,06:01 PM,05:27 PM,05:50 AM
500,Mexico,Mexico City,19.43,-99.13,America/Mexico_City,24.0,75.2,Light rain,23.0,37.1,ENE,0.0,0.0,39,24.5,76.2,13.0,8.0,6.0,06:21 AM,06:53 PM,07:00 PM,05:48 AM
501,Micronesia,Palikir,6.92,158.15,Pacific/Pohnpei,29.0,84.2,Overcast,3.8,6.1,WSW,0.4,0.02,79,33.6,92.4,24.0,14.0,6.0,06:20 AM,06:36 PM,06:01 PM,05:12 AM
502,Russia,Chi-Chi-Erh,51.7,94.45,Asia/Krasnoyarsk,19.7,67.5,Partly cloudy,4.0,6.5,E,0.0,0.0,59,19.7,67.5,10.0,6.0,5.0,05:50 AM,07:35 PM,07:45 PM,03:56 AM
503,Monaco,Monaco,43.73,7.42,Europe/Monaco,20.0,68.0,Clear,8.1,13.0,NNW,0.0,0.0,73,20.0,68.0,10.0,6.0,1.0,06:51 AM,08:10 PM,08:18 PM,05:34 AM
504,Mongolia,Ulaanbaatar,47.92,106.92,Asia/Ulaanbaatar,10.0,50.0,Partly cloudy,2.2,3.6,SSW,0.0,0.0,82,8.8,47.9,10.0,6.0,6.0,06:07 AM,07:39 PM,07:43 PM,04:18 AM
505,Montenegro,Podgorica,42.44,19.26,Europe/Podgorica,19.0,66.2,Partly cloudy,6.9,11.2,WNW,3.1,0.12,94,19.0,66.2,10.0,6.0,1.0,06:05 AM,07:21 PM,07:27 PM,04:47 AM
506,Morocco,Rabat,34.03,-6.84,Africa/Casablanca,18.0,64.4,Partly cloudy,2.2,3.6,N,0.0,0.0,94,18.0,64.4,5.0,3.0,1.0,06:59 AM,07:56 PM,07:59 PM,05:57 AM
507,Mozambique,Maputo,-25.97,32.59,Africa/Maputo,17.0,62.6,Clear,3.8,6.1,WNW,0.0,0.0,88,17.0,62.6,10.0,6.0,1.0,06:05 AM,05:37 PM,05:03 PM,05:43 AM
508,Myanmar,Pathein,16.78,94.73,Asia/Yangon,25.5,77.9,Partly cloudy,3.6,5.8,SSW,0.0,0.0,93,28.8,83.8,10.0,6.0,7.0,05:57 AM,06:26 PM,06:07 PM,04:51 AM
509,Namibia,Windhoek,-22.57,17.08,Africa/Windhoek,16.0,60.8,Clear,4.3,6.8,E,0.0,0.0,42,16.0,60.8,10.0,6.0,1.0,07:04 AM,06:41 PM,06:12 PM,06:41 AM
510,Turkey,Yaren,39.55,27.62,Europe/Istanbul,23.0,73.4,Clear,4.3,6.8,SSW,0.0,0.0,61,25.0,77.0,10.0,6.0,1.0,06:35 AM,07:45 PM,07:47 PM,05:19 AM
511,Nepal,Kathmandu,27.72,85.32,Asia/Kathmandu,22.0,71.6,Partly cloudy,2.2,3.6,SE,0.5,0.02,94,24.5,76.1,7.0,4.0,4.0,05:42 AM,06:27 PM,06:16 PM,04:26 AM
512,Netherlands,Amsterdam,52.37,4.89,Europe/Amsterdam,13.0,55.4,Moderate rain,9.4,15.1,SSW,0.4,0.02,88,11.6,52.9,10.0,6.0,1.0,06:48 AM,08:33 PM,08:49 PM,05:15 AM
513,New Zealand,Wellington,-41.3,174.78,Pacific/Auckland,14.0,57.2,Partly cloudy,23.0,37.1,N,0.0,0.0,72,11.4,52.5,10.0,6.0,4.0,06:50 AM,05:54 PM,04:35 PM,06:30 AM
514,Nicaragua,Managua,12.15,-86.27,America/Managua,34.0,93.2,Partly cloudy,6.9,11.2,ENE,0.0,0.0,56,48.3,119.0,10.0,6.0,7.0,05:35 AM,05:57 PM,06:00 PM,05:04 AM
515,Niger,Niamey,13.52,2.12,Africa/Niamey,24.0,75.2,Clear,9.4,15.1,S,0.0,0.0,83,25.7,78.2,10.0,6.0,1.0,06:40 AM,07:04 PM,06:56 PM,05:53 AM
516,Nigeria,Abuja,9.18,7.18,Africa/Lagos,24.0,75.2,Partly cloudy,2.5,4.0,E,1.3,0.05,94,26.8,80.2,10.0,6.0,1.0,06:23 AM,06:41 PM,06:30 PM,05:38 AM
517,North Korea,Pyongyang,39.02,125.75,Asia/Pyongyang,20.1,68.2,Partly cloudy,2.2,3.6,ESE,0.0,0.0,87,20.1,68.2,10.0,6.0,6.0,06:03 AM,07:12 PM,07:05 PM,04:26 AM
518,Macedonia,Skopje,42.0,21.43,Europe/Skopje,19.0,66.2,Partly cloudy,3.8,6.1,E,0.0,0.0,68,19.0,66.2,10.0,6.0,1.0,05:57 AM,07:12 PM,07:17 PM,04:39 AM
519,Norway,Oslo,59.92,10.75,Europe/Oslo,13.0,55.4,Partly cloudy,13.6,22.0,NNE,0.0,0.0,94,13.2,55.8,10.0,6.0,1.0,06:06 AM,08:27 PM,08:53 PM,04:09 AM
520,Oman,Muscat,23.61,58.59,Asia/Muscat,29.0,84.2,Partly cloudy,2.2,3.6,N,0.0,0.0,94,35.5,95.8,8.0,4.0,1.0,05:47 AM,06:26 PM,06:15 PM,04:41 AM
521,Pakistan,Islamabad,33.7,73.17,Asia/Karachi,25.7,78.3,Clear,6.3,10.1,NE,0.0,0.0,55,26.6,79.9,10.0,6.0,1.0,05:40 AM,06:36 PM,06:30 PM,04:20 AM
522,Palau,Adkip,7.36,134.51,Pacific/Palau,29.0,84.2,Partly cloudy,5.6,9.0,SW,0.0,0.0,79,35.0,95.1,21.0,13.0,1.0,05:55 AM,06:11 PM,05:40 PM,04:49 AM
523,Bolivia,National,-11.18,-67.08,America/La_Paz,31.1,88.0,Clear,2.2,3.6,NNW,0.0,0.0,40,31.5,88.7,10.0,6.0,1.0,06:33 AM,06:25 PM,06:17 PM,06:13 AM
524,Panama,Panama City,8.97,-79.53,America/Panama,30.0,86.0,Partly cloudy,17.4,28.1,NW,0.9,0.04,84,39.0,102.3,10.0,6.0,6.0,06:10 AM,06:27 PM,06:28 PM,05:40 AM
525,Papua New Guinea,Port Moresby,-9.46,147.19,Pacific/Port_Moresby,27.0,80.6,Mist,17.4,28.1,SE,0.0,0.0,62,28.6,83.5,10.0,6.0,6.0,06:15 AM,06:09 PM,05:26 PM,05:22 AM
526,Paraguay,Carreria,-21.55,-58.12,America/Asuncion,29.2,84.6,Clear,2.5,4.0,ENE,0.0,0.0,37,28.9,84.0,10.0,6.0,1.0,06:04 AM,05:43 PM,05:29 PM,05:50 AM
527,Peru,Lima,-12.05,-77.05,America/Lima,18.7,65.7,Partly cloudy,11.0,17.6,S,0.0,0.0,79,18.7,65.7,10.0,6.0,5.0,06:13 AM,06:05 PM,05:58 PM,05:56 AM
528,Philippines,Manila,14.6,120.98,Asia/Manila,25.0,77.0,Light rain,2.2,3.6,SW,1.6,0.06,100,27.5,81.6,6.0,3.0,6.0,05:44 AM,06:10 PM,05:46 PM,04:34 AM
529,Poland,Warsaw,52.25,21.0,Europe/Warsaw,16.0,60.8,Partly cloudy,6.9,11.2,WSW,0.0,0.0,94,16.0,60.8,10.0,6.0,1.0,05:44 AM,07:29 PM,07:44 PM,04:07 AM
530,Portugal,Lisbon,38.72,-9.13,Europe/Lisbon,19.0,66.2,Partly cloudy,13.6,22.0,NNW,0.0,0.0,78,19.0,66.2,10.0,6.0,1.0,07:04 AM,08:10 PM,08:16 PM,05:57 AM
531,Qatar,Doha,25.29,51.53,Asia/Qatar,34.0,93.2,Clear,4.3,6.8,NNE,0.0,0.0,67,42.3,108.1,10.0,6.0,1.0,05:14 AM,05:55 PM,05:47 PM,04:08 AM
532,Romania,Bucharest,44.43,26.1,Europe/Bucharest,20.0,68.0,Partly cloudy,3.8,6.1,N,0.4,0.02,94,20.0,68.0,10.0,6.0,1.0,06:35 AM,07:57 PM,08:03 PM,05:13 AM
533,Russia,Moscow,55.75,37.62,Europe/Moscow,13.0,55.4,Clear,4.3,6.8,ESE,0.0,0.0,88,12.6,54.7,10.0,6.0,1.0,05:30 AM,07:30 PM,07:48 PM,03:39 AM
534,Rwanda,Kigali,-1.95,30.06,Africa/Kigali,20.0,68.0,Partly cloudy,4.3,6.8,WNW,0.0,0.0,56,20.0,68.0,10.0,6.0,1.0,05:59 AM,06:03 PM,05:43 PM,05:18 AM
535,Saint Kitts and Nevis,Basseterre,17.3,-62.72,America/St_Kitts,29.0,84.2,Partly cloudy,11.9,19.1,ENE,0.1,0.0,79,34.3,93.7,10.0,6.0,1.0,05:57 AM,06:26 PM,06:27 PM,05:19 AM
536,Saint Lucia,Castries,14.0,-61.0,America/St_Lucia,28.0,82.4,Partly cloudy,8.1,13.0,E,0.0,0.0,84,32.3,90.2,10.0,6.0,1.0,05:52 AM,06:17 PM,06:17 PM,05:16 AM
537,Saint Vincent and the Grenadines,Kingstown,13.13,-61.22,America/St_Vincent,28.9,84.0,Patchy rain possible,15.9,25.6,ESE,0.1,0.0,78,34.1,93.4,10.0,6.0,1.0,05:54 AM,06:17 PM,06:17 PM,05:18 AM
538,Samoa,Apia,-13.83,-171.73,Pacific/Apia,29.0,84.2,Partly cloudy,6.9,11.2,WNW,0.0,0.0,75,34.4,93.8,10.0,6.0,7.0,06:33 AM,06:22 PM,05:28 PM,05:39 AM
539,San Marino,San Marino,43.93,12.45,Europe/Rome,17.0,62.6,Clear,2.2,3.6,S,0.0,0.0,83,17.0,62.6,10.0,6.0,1.0,06:31 AM,07:50 PM,07:58 PM,05:12 AM
540,Belgium,'S-Gravenwezel,51.27,4.55,Europe/Brussels,11.0,51.8,Clear,5.6,9.0,SW,1.9,0.07,94,9.9,49.9,10.0,6.0,1.0,06:51 AM,08:33 PM,08:47 PM,05:21 AM
541,Saudi Arabia,Riyadh,24.64,46.77,Asia/Riyadh,31.0,87.8,Clear,3.8,6.1,NNE,0.0,0.0,22,30.2,86.4,10.0,6.0,1.0,05:33 AM,06:14 PM,06:05 PM,04:29 AM
542,Senegal,Dakar,14.67,-17.44,Africa/Dakar,27.0,80.6,Partly cloudy,16.1,25.9,SSE,1.0,0.04,89,30.5,86.8,10.0,6.0,1.0,06:57 AM,07:23 PM,07:18 PM,06:13 AM
543,Serbia,Belgrade,44.8,20.47,Europe/Belgrade,16.0,60.8,Clear,6.9,11.2,SW,0.4,0.02,100,16.0,60.8,10.0,6.0,1.0,05:58 AM,07:20 PM,07:27 PM,04:35 AM
544,Seychelles Islands,Victoria,-4.62,55.45,Indian/Mahe,26.0,78.8,Partly cloudy,10.5,16.9,ESE,0.0,0.0,79,28.4,83.2,10.0,6.0,1.0,06:18 AM,06:19 PM,05:54 PM,05:36 AM
545,Sierra Leone,Freetown,8.49,-13.23,Africa/Freetown,27.0,80.6,Partly cloudy,4.3,6.8,SSW,0.0,0.0,84,31.3,88.4,10.0,6.0,1.0,06:45 AM,07:02 PM,06:54 PM,06:04 AM
546,Singapore,Singapore,1.29,103.86,Asia/Singapore,28.0,82.4,Partly cloudy,4.3,6.8,ENE,0.0,0.0,79,31.9,89.5,10.0,6.0,1.0,07:01 AM,07:10 PM,06:39 PM,06:06 AM
547,Slovakia,Bratislava,48.15,17.12,Europe/Bratislava,15.0,59.0,Clear,4.3,6.8,NW,0.0,0.0,88,14.8,58.7,10.0,6.0,1.0,06:06 AM,07:38 PM,07:49 PM,04:39 AM
548,Slovenia,Ljubljana,46.06,14.51,Europe/Ljubljana,14.0,57.2,Partly cloudy,3.8,6.1,S,6.0,0.24,100,14.7,58.4,10.0,6.0,1.0,06:19 AM,07:45 PM,07:54 PM,04:57 AM
549,Solomon Islands,Honiara,-9.43,159.95,Pacific/Guadalcanal,28.0,82.4,Partly cloudy,2.2,3.6,N,0.7,0.03,84,34.4,93.8,10.0,6.0,6.0,06:24 AM,06:18 PM,05:33 PM,05:29 AM
550,Somalia,Mogadishu,2.07,45.37,Africa/Mogadishu,24.2,75.6,Partly cloudy,13.0,20.9,SW,0.0,0.0,84,26.3,79.3,10.0,6.0,1.0,05:55 AM,06:04 PM,05:44 PM,05:09 AM
551,South Africa,Pretoria,-25.75,28.19,Africa/Johannesburg,13.0,55.4,Clear,5.6,9.0,ENE,0.0,0.0,51,12.9,55.2,10.0,6.0,1.0,06:22 AM,05:54 PM,05:22 PM,06:00 AM
552,South Korea,Seoul,37.57,127.0,Asia/Seoul,22.0,71.6,Partly cloudy,2.5,4.0,S,0.1,0.0,94,24.5,76.1,7.0,4.0,5.0,06:00 AM,07:05 PM,06:57 PM,04:24 AM
553,Sudan,Juba,12.15,24.45,Africa/Khartoum,20.9,69.6,Light rain shower,6.3,10.1,S,1.0,0.04,89,20.9,69.6,10.0,6.0,1.0,06:11 AM,06:34 PM,06:21 PM,05:22 AM
554,Spain,Madrid,40.4,-3.68,Europe/Madrid,21.0,69.8,Clear,2.2,3.6,NE,0.0,0.0,40,21.0,69.8,10.0,6.0,1.0,07:40 AM,08:50 PM,08:57 PM,06:29 AM
555,Sri Lanka,Colombo,6.93,79.85,Asia/Colombo,26.0,78.8,Moderate rain,9.4,15.1,WSW,0.0,0.0,94,29.2,84.6,9.0,5.0,1.0,06:04 AM,06:19 PM,05:56 PM,05:08 AM
556,Sudan,Khartoum,15.59,32.53,Africa/Khartoum,28.7,83.7,Partly cloudy,17.0,27.4,S,0.0,0.0,50,29.7,85.5,10.0,6.0,1.0,05:37 AM,06:04 PM,05:52 PM,04:43 AM
557,Suriname,Paramaribo,5.83,-55.17,America/Paramaribo,29.0,84.2,Patchy light rain with thunder,9.4,15.1,NNE,0.1,0.0,79,35.5,96.0,10.0,6.0,1.0,06:34 AM,06:48 PM,06:44 PM,06:02 AM
558,Sweden,Stockholm,59.33,18.05,Europe/Stockholm,11.0,51.8,Clear,4.3,6.8,WNW,0.0,0.0,100,10.1,50.2,10.0,6.0,1.0,05:39 AM,07:57 PM,08:21 PM,03:42 AM
559,Switzerland,Bern,46.92,7.47,Europe/Zurich,13.0,55.4,Overcast,2.2,3.6,S,0.0,0.0,88,12.7,54.8,10.0,6.0,1.0,06:46 AM,08:14 PM,08:24 PM,05:24 AM
560,Syria,Damascus,33.5,36.3,Asia/Damascus,23.0,73.4,Clear,10.5,16.9,SW,0.0,0.0,61,24.5,76.0,10.0,6.0,1.0,06:07 AM,07:03 PM,07:01 PM,04:56 AM
561,Tajikistan,Dushanbe,38.56,68.77,Asia/Dushanbe,24.0,75.2,Partly cloudy,6.9,11.2,NE,0.0,0.0,44,24.5,76.1,10.0,6.0,1.0,05:52 AM,06:59 PM,06:57 PM,04:28 AM
562,Tanzania,Dodoma,-6.18,35.75,Africa/Dar_es_Salaam,18.9,66.0,Clear,9.2,14.8,E,0.0,0.0,61,18.9,66.0,10.0,6.0,1.0,06:38 AM,06:37 PM,06:14 PM,06:00 AM
563,Thailand,Bangkok,13.75,100.52,Asia/Bangkok,27.0,80.6,Partly cloudy,3.8,6.1,ESE,0.1,0.0,94,31.4,88.6,7.0,4.0,1.0,06:06 AM,06:31 PM,06:09 PM,05:02 AM
564,Indonesia,Murong Timor,-7.56,112.27,Asia/Jakarta,20.8,69.4,Sunny,5.8,9.4,SSW,0.0,0.0,88,20.8,69.4,10.0,6.0,6.0,05:34 AM,05:31 PM,04:54 PM,04:44 AM
565,Bulgaria,Lom,43.81,23.24,Europe/Bucharest,22.8,73.0,Partly cloudy,4.9,7.9,W,0.0,0.0,42,24.4,75.9,10.0,6.0,1.0,06:48 AM,08:07 PM,08:13 PM,05:27 AM
566,Tonga,Nuku`Aloia,-21.13,-175.2,Pacific/Tongatapu,26.0,78.8,Partly cloudy,16.1,25.9,E,0.0,0.0,65,27.6,81.7,10.0,6.0,5.0,06:53 AM,06:31 PM,05:32 PM,06:05 AM
567,Trinidad and Tobago,Port Of Spain,10.65,-61.52,America/Port_of_Spain,29.0,84.2,Overcast,4.3,6.8,SE,0.0,0.0,79,37.4,99.4,10.0,6.0,1.0,05:57 AM,06:17 PM,06:15 PM,05:23 AM
568,Tunisia,Tunis,36.8,10.18,Africa/Tunis,24.0,75.2,Partly cloudy,2.2,3.6,NNE,0.5,0.02,78,25.8,78.4,10.0,6.0,1.0,05:49 AM,06:51 PM,06:54 PM,04:39 AM
569,Turkey,Ankara,39.93,32.86,Europe/Istanbul,21.0,69.8,Clear,2.2,3.6,N,0.0,0.0,40,21.0,69.8,10.0,6.0,1.0,06:14 AM,07:24 PM,07:27 PM,04:56 AM
570,Turkmenistan,Ashgabat,37.95,58.38,Asia/Ashgabat,19.0,66.2,Clear,2.5,4.0,WSW,0.0,0.0,56,19.0,66.2,10.0,6.0,1.0,06:34 AM,07:40 PM,07:39 PM,05:13 AM
571,Tuvalu,Funafuti,-8.52,179.22,Pacific/Funafuti,33.0,91.4,Partly cloudy,6.9,11.2,E,0.1,0.0,80,46.0,114.8,10.0,6.0,6.0,06:06 AM,06:02 PM,05:14 PM,05:08 AM
572,Uganda,Kampala,0.32,32.57,Africa/Kampala,20.0,68.0,Partly cloudy,4.3,6.8,NE,0.0,0.0,94,20.0,68.0,10.0,6.0,1.0,06:47 AM,06:54 PM,06:34 PM,06:04 AM
573,Ukraine,Lviv,49.83,24.0,Europe/Kiev,15.8,60.4,Heavy rain at times,6.0,9.7,W,9.7,0.38,95,15.8,60.4,6.0,3.0,1.0,06:35 AM,08:13 PM,08:25 PM,05:04 AM
574,United Arab Emirates,Abu Dhabi,24.47,54.37,Asia/Dubai,33.0,91.4,Clear,2.2,3.6,N,0.0,0.0,63,39.9,103.8,10.0,6.0,1.0,06:03 AM,06:43 PM,06:33 PM,04:57 AM
575,United Kingdom,London,51.52,-0.11,Europe/London,13.0,55.4,Overcast,2.2,3.6,WSW,0.0,0.0,77,13.2,55.8,10.0,6.0,1.0,06:09 AM,07:52 PM,08:07 PM,04:40 AM
576,United States of America,Washington Park,46.6,-120.49,America/Los_Angeles,26.7,80.1,Sunny,15.0,24.1,W,0.0,0.0,28,26.4,79.5,16.0,9.0,7.0,06:19 AM,07:45 PM,08:04 PM,05:29 AM
577,Uruguay,Montevideo,-34.86,-56.17,America/Montevideo,15.0,59.0,Clear,3.8,6.1,N,0.0,0.0,72,14.6,58.2,10.0,6.0,1.0,07:07 AM,06:24 PM,06:03 PM,07:03 AM
578,Uzbekistan,Tashkent,41.32,69.25,Asia/Tashkent,19.0,66.2,Partly cloudy,4.3,6.8,ENE,0.1,0.0,83,19.0,66.2,10.0,6.0,1.0,05:47 AM,07:00 PM,07:01 PM,04:18 AM
579,Vanuatu,Port Vila,-17.73,168.32,Pacific/Efate,28.0,82.4,Partly cloudy,5.6,9.0,N,1.3,0.05,79,33.7,92.6,10.0,6.0,6.0,05:56 AM,05:40 PM,04:46 PM,05:08 AM
580,Venezuela,Caracas,10.5,-66.92,America/Caracas,30.0,86.0,Partly cloudy,2.5,4.0,NNW,0.1,0.0,62,38.0,100.5,10.0,6.0,1.0,06:18 AM,06:38 PM,06:38 PM,05:46 AM
581,Vietnam,Hanoi,21.03,105.85,Asia/Bangkok,25.0,77.0,Sunny,3.8,6.1,NNW,0.0,0.0,89,27.0,80.5,10.0,6.0,6.0,05:40 AM,06:15 PM,05:57 PM,04:27 AM
582,Yemen,Sanaa,15.35,44.21,Asia/Aden,17.8,64.0,Thundery outbreaks possible,3.8,6.1,SW,0.0,0.0,53,17.8,64.0,9.0,5.0,1.0,05:51 AM,06:17 PM,06:04 PM,04:54 AM
583,Zambia,Lusaka,-15.42,28.28,Africa/Lusaka,15.1,59.2,Clear,5.8,9.4,ESE,0.0,0.0,42,15.1,59.2,10.0,6.0,1.0,06:14 AM,06:01 PM,05:35 PM,05:44 AM
584,Zimbabwe,Harare,-17.82,31.04,Africa/Harare,11.2,52.2,Clear,6.9,11.2,ENE,0.0,0.0,64,9.8,49.6,10.0,6.0,1.0,06:05 AM,05:49 PM,05:20 PM,05:36 AM
585,Afghanistan,Kabul,34.52,69.18,Asia/Kabul,19.2,66.6,Clear,2.2,3.6,WNW,0.0,0.0,49,19.2,66.6,10.0,6.0,1.0,05:26 AM,06:21 PM,06:52 PM,05:22 AM
586,Albania,Tirana,41.33,19.82,Europe/Tirane,17.0,62.6,Clear,3.8,6.1,SSE,0.0,0.0,88,17.0,62.6,10.0,6.0,1.0,06:06 AM,07:16 PM,07:50 PM,06:10 AM
587,Algeria,Algiers,36.76,3.05,Africa/Algiers,22.0,71.6,Partly cloudy,4.3,6.8,SSW,0.0,0.0,78,24.6,76.2,10.0,6.0,1.0,06:17 AM,07:18 PM,07:54 PM,06:27 AM
588,Andorra,Andorra La Vella,42.5,1.52,Europe/Andorra,8.1,46.6,Clear,2.2,3.6,SSE,0.0,0.0,88,8.1,46.6,10.0,6.0,1.0,07:18 AM,08:30 PM,09:06 PM,07:26 AM
589,Angola,Luanda,-8.84,13.23,Africa/Luanda,21.0,69.8,Partly cloudy,2.2,3.6,S,0.0,0.0,94,21.0,69.8,10.0,6.0,1.0,06:09 AM,06:05 PM,06:43 PM,06:28 AM
590,Antigua and Barbuda,Saint John's,17.12,-61.85,America/Antigua,29.0,84.2,Partly cloudy,8.1,13.0,E,0.0,0.0,75,33.9,93.1,10.0,6.0,1.0,05:54 AM,06:21 PM,07:08 PM,06:19 AM
591,Argentina,Buenos Aires,-34.59,-58.67,America/Argentina/Buenos_Aires,12.0,53.6,Clear,8.1,13.0,E,0.0,0.0,62,11.0,51.7,10.0,6.0,1.0,07:15 AM,06:35 PM,07:28 PM,07:48 AM
592,Armenia,Yerevan,40.18,44.51,Asia/Yerevan,24.0,75.2,Clear,5.6,9.0,NE,0.0,0.0,36,25.2,77.4,10.0,6.0,1.0,06:28 AM,07:36 PM,08:08 PM,06:27 AM
593,Australia,Canberra,-35.28,149.22,Australia/Sydney,11.0,51.8,Sunny,15.0,24.1,S,0.0,0.0,50,9.5,49.2,10.0,6.0,3.0,06:25 AM,05:43 PM,05:53 PM,06:37 AM
594,Austria,Vienna,48.2,16.37,Europe/Vienna,16.0,60.8,Clear,4.3,6.8,WSW,0.1,0.0,77,16.0,60.8,10.0,6.0,1.0,06:10 AM,07:39 PM,08:12 PM,06:12 AM
595,Azerbaijan,Baku,40.4,49.88,Asia/Baku,23.0,73.4,Partly cloudy,4.3,6.8,ESE,0.0,0.0,73,24.9,76.8,10.0,6.0,1.0,06:06 AM,07:15 PM,07:47 PM,06:04 AM
596,Bahamas,Nassau,25.08,-77.35,America/Nassau,31.0,87.8,Partly cloudy,6.9,11.2,NNW,0.0,0.0,79,42.6,108.7,10.0,6.0,8.0,06:50 AM,07:30 PM,08:15 PM,07:18 AM
597,Bahrain,Manama,26.24,50.58,Asia/Bahrain,34.0,93.2,Clear,12.5,20.2,NW,0.0,0.0,60,41.7,107.1,10.0,6.0,1.0,05:17 AM,05:59 PM,06:31 PM,05:21 AM
598,Bangladesh,Dhaka,23.72,90.41,Asia/Dhaka,28.2,82.8,Patchy rain possible,6.9,11.2,SSW,0.1,0.0,82,33.1,91.6,10.0,6.0,1.0,05:40 AM,06:18 PM,06:45 PM,05:37 AM
599,Barbados,Bridgetown,13.1,-59.62,America/Barbados,28.0,82.4,Partly cloudy,12.5,20.2,E,0.0,0.0,79,31.4,88.6,10.0,6.0,1.0,05:48 AM,06:10 PM,06:57 PM,06:13 AM
600,Belarus,Minsk,53.9,27.57,Europe/Minsk,13.0,55.4,Partly cloudy,4.3,6.8,SSW,0.0,0.0,100,12.3,54.2,7.0,4.0,1.0,06:15 AM,08:03 PM,08:35 PM,06:11 AM
601,Belgium,Brussels,50.83,4.33,Europe/Brussels,14.0,57.2,Partly cloudy,4.3,6.8,SE,0.9,0.04,94,13.6,56.4,10.0,6.0,1.0,06:54 AM,08:31 PM,09:04 PM,06:58 AM
602,Belize,Belmopan,17.25,-88.77,America/Belize,30.0,86.0,Partly cloudy,3.8,6.1,SE,0.3,0.01,79,37.3,99.2,10.0,6.0,6.0,05:41 AM,06:09 PM,06:59 PM,06:12 AM
603,Benin,Porto-Novo,6.48,2.62,Africa/Porto-Novo,26.0,78.8,Partly cloudy,5.6,9.0,SW,0.1,0.0,89,29.6,85.2,10.0,6.0,1.0,06:42 AM,06:57 PM,07:36 PM,07:00 AM
604,Bhutan,Thimphu,27.48,89.6,Asia/Thimphu,12.3,54.1,Cloudy,2.2,3.6,SSW,0.0,0.0,96,12.3,54.1,10.0,6.0,1.0,05:40 AM,06:24 PM,06:52 PM,05:36 AM
605,Bolivia,Sucre,-19.04,-65.26,America/La_Paz,10.8,51.4,Moderate rain at times,2.2,3.6,NNE,5.6,0.22,82,10.8,51.4,8.0,4.0,1.0,06:30 AM,06:13 PM,07:05 PM,07:01 AM
606,Bosnia and Herzegovina,Sarajevo,43.85,18.38,Europe/Sarajevo,16.0,60.8,Partly cloudy,3.8,6.1,ESE,0.0,0.0,100,16.0,60.8,7.0,4.0,1.0,06:08 AM,07:25 PM,07:59 PM,06:12 AM
607,Botswana,Gaborone,-24.65,25.91,Africa/Gaborone,12.0,53.6,Clear,5.6,9.0,ESE,0.0,0.0,47,11.3,52.4,10.0,6.0,1.0,06:29 AM,06:05 PM,06:40 PM,06:50 AM
608,Brazil,Bras,-2.08,-58.17,America/Manaus,32.6,90.7,Clear,2.5,4.0,SE,0.0,0.0,33,32.6,90.7,10.0,6.0,1.0,05:51 AM,05:55 PM,06:43 PM,06:18 AM
609,Brunei Darussalam,Bandar Seri Begawan,4.88,114.93,Asia/Brunei,28.0,82.4,Partly cloudy,4.3,6.8,S,0.2,0.01,94,34.1,93.4,10.0,6.0,6.0,06:14 AM,06:27 PM,06:50 PM,06:14 AM
610,Bulgaria,Sofia,42.68,23.32,Europe/Sofia,13.0,55.4,Partly cloudy,2.2,3.6,N,0.0,0.0,94,13.6,56.4,10.0,6.0,1.0,06:50 AM,08:04 PM,08:37 PM,06:53 AM
611,Burkina Faso,Ouagadougou,12.37,-1.52,Africa/Ouagadougou,27.3,81.1,Clear,6.7,10.8,SSE,0.0,0.0,67,29.4,84.9,10.0,6.0,1.0,05:56 AM,06:17 PM,06:57 PM,06:12 AM
612,Burundi,Bujumbura,-3.38,29.36,Africa/Bujumbura,19.7,67.5,Clear,2.2,3.6,NNE,0.0,0.0,57,19.7,67.5,10.0,6.0,1.0,06:02 AM,06:04 PM,06:39 PM,06:17 AM
613,Madagascar,Ivory,-24.37,46.45,Indian/Antananarivo,18.7,65.7,Clear,6.5,10.4,NE,0.0,0.0,69,18.7,65.7,10.0,6.0,1.0,06:07 AM,05:43 PM,06:14 PM,06:25 AM
614,Cape Verde,Praia,14.93,-23.51,Atlantic/Cape_Verde,28.0,82.4,Partly cloudy,13.6,22.0,SW,0.5,0.02,89,33.7,92.6,10.0,6.0,1.0,06:21 AM,06:47 PM,07:29 PM,06:41 AM
615,Cambodia,Phnom Penh,11.55,104.92,Asia/Phnom_Penh,27.0,80.6,Partly cloudy,2.5,4.0,S,0.1,0.0,94,30.4,86.8,10.0,6.0,6.0,05:50 AM,06:11 PM,06:36 PM,05:49 AM
616,Cameroon,Bafoussam,5.47,10.42,Africa/Douala,18.5,65.3,Light rain shower,3.1,5.0,WSW,0.6,0.02,96,18.5,65.3,10.0,6.0,1.0,06:12 AM,06:25 PM,07:03 PM,06:28 AM
617,Canada,Ottawa,45.42,-75.7,America/Toronto,20.0,68.0,Partly cloudy,5.6,9.0,NNW,0.0,0.0,53,20.0,68.0,24.0,14.0,6.0,06:23 AM,07:43 PM,08:22 PM,06:47 AM
618,Central African Republic,Bangui,4.37,18.58,Africa/Bangui,20.9,69.6,Mist,2.5,4.0,NNW,0.6,0.02,97,20.9,69.6,2.0,1.0,1.0,05:40 AM,05:52 PM,06:29 PM,05:55 AM
619,Chad,N'djamena,12.11,15.05,Africa/Douala,28.0,82.4,Clear,3.8,6.1,SSW,0.0,0.0,84,29.8,85.6,8.0,4.0,1.0,05:49 AM,06:11 PM,06:48 PM,06:03 AM
620,Chile,Santiago,-33.45,-70.67,America/Santiago,16.0,60.8,Partly cloudy,2.2,3.6,WSW,0.0,0.0,55,16.0,60.8,10.0,6.0,1.0,07:02 AM,06:24 PM,07:19 PM,07:36 AM
621,China,Beijing,39.93,116.39,Asia/Shanghai,21.0,69.8,Sunny,4.3,6.8,NNW,0.0,0.0,88,21.0,69.8,10.0,6.0,6.0,05:41 AM,06:48 PM,07:15 PM,05:25 AM
622,Bulgaria,Bogot,43.32,24.7,Europe/Sofia,18.4,65.1,Clear,8.3,13.3,WSW,0.0,0.0,63,18.4,65.1,10.0,6.0,1.0,06:43 AM,07:59 PM,08:32 PM,06:46 AM
623,Comoros,Moroni,-11.7,43.24,Indian/Comoro,24.0,75.2,Partly cloudy,4.3,6.8,SE,0.0,0.0,78,25.9,78.5,10.0,6.0,1.0,06:11 AM,06:04 PM,06:37 PM,06:26 AM
624,Congo,Brazzaville,-4.26,15.28,Africa/Brazzaville,26.2,79.2,Clear,6.5,10.4,W,0.0,0.0,47,26.7,80.1,10.0,6.0,1.0,05:59 AM,06:00 PM,06:37 PM,06:16 AM
625,Costa Rica,San Juan,9.97,-84.08,America/Costa_Rica,23.0,73.4,Partly cloudy,4.3,6.8,NW,1.0,0.04,83,25.3,77.5,10.0,6.0,5.0,05:27 AM,05:46 PM,06:36 PM,05:58 AM
626,Croatia,Zagreb,45.8,16.0,Europe/Zagreb,14.0,57.2,Clear,2.2,3.6,WSW,0.0,0.0,100,14.7,58.4,10.0,6.0,1.0,06:15 AM,07:37 PM,08:10 PM,06:18 AM
627,Cuba,Havana,23.13,-82.36,America/Havana,31.0,87.8,Partly cloudy,4.3,6.8,SW,0.0,0.0,75,43.6,110.5,9.0,5.0,7.0,07:11 AM,07:48 PM,08:35 PM,07:41 AM
628,Cyprus,Nicosia,35.17,33.37,Asia/Famagusta,24.0,75.2,Partly cloudy,10.5,16.9,W,0.0,0.0,78,25.8,78.5,10.0,6.0,1.0,06:18 AM,07:16 PM,07:49 PM,06:22 AM
629,Czech Republic,Prague,50.08,14.47,Europe/Prague,12.0,53.6,Clear,9.4,15.1,S,0.0,0.0,77,10.7,51.2,10.0,6.0,1.0,06:15 AM,07:49 PM,08:22 PM,06:16 AM
630,Democratic Republic of Congo,Kinshasa,-4.3,15.3,Africa/Brazzaville,25.9,78.6,Clear,6.3,10.1,W,0.0,0.0,49,26.4,79.5,10.0,6.0,1.0,05:59 AM,06:00 PM,06:37 PM,06:16 AM
631,Denmark,Copenhagen,55.67,12.58,Europe/Copenhagen,13.0,55.4,Overcast,4.3,6.8,SW,2.1,0.08,94,11.8,53.3,10.0,6.0,1.0,06:12 AM,08:07 PM,08:38 PM,06:10 AM
632,Djibouti,Djibouti,11.6,43.15,Africa/Djibouti,35.0,95.0,Mist,3.8,6.1,SE,0.0,0.0,50,43.0,109.4,9.0,5.0,1.0,05:57 AM,06:18 PM,06:52 PM,06:06 AM
633,Dominica,Roseau,15.3,-61.4,America/Dominica,29.0,84.2,Partly cloudy,8.1,13.0,ESE,0.0,0.0,84,33.9,93.0,10.0,6.0,1.0,05:53 AM,06:18 PM,07:05 PM,06:19 AM
634,Dominican Republic,Santo Domingo,18.47,-69.9,America/Santo_Domingo,29.0,84.2,Partly cloudy,6.9,11.2,SE,0.0,0.0,89,35.6,96.0,10.0,6.0,1.0,06:25 AM,06:55 PM,07:42 PM,06:52 AM
635,Ecuador,Quito,-0.22,-78.5,America/Guayaquil,14.3,57.7,Patchy rain possible,2.2,3.6,N,2.1,0.08,79,14.2,57.6,9.0,5.0,3.0,06:11 AM,06:17 PM,07:09 PM,06:41 AM
636,Egypt,Cairo,30.05,31.25,Africa/Cairo,26.0,78.8,Partly cloudy,6.9,11.2,N,0.0,0.0,84,27.7,81.8,10.0,6.0,1.0,06:31 AM,07:19 PM,07:54 PM,06:37 AM
637,El Salvador,San Salvador,13.71,-89.2,America/El_Salvador,32.0,89.6,Partly cloudy,5.6,9.0,SW,0.5,0.02,71,46.3,115.3,10.0,6.0,6.0,05:46 AM,06:09 PM,06:59 PM,06:16 AM
638,Equatorial Guinea,Malabo,3.75,8.78,Africa/Malabo,25.0,77.0,Patchy rain possible,5.1,8.3,WSW,0.3,0.01,87,27.6,81.7,9.0,5.0,1.0,06:19 AM,06:31 PM,07:09 PM,06:36 AM
639,Eritrea,Asmara,15.33,38.93,Africa/Asmara,16.9,62.4,Moderate rain at times,2.9,4.7,W,0.5,0.02,76,16.9,62.4,10.0,6.0,1.0,06:11 AM,06:37 PM,07:12 PM,06:20 AM
640,Estonia,Tallinn,59.43,24.73,Europe/Tallinn,14.0,57.2,Fog,4.3,6.8,SSE,0.0,0.0,100,13.9,57.0,0.2,0.0,1.0,06:14 AM,08:27 PM,08:57 PM,06:05 AM
641,Swaziland,Mbabane,-26.32,31.13,Africa/Mbabane,13.8,56.8,Clear,6.0,9.7,WNW,0.0,0.0,39,13.2,55.8,10.0,6.0,1.0,06:10 AM,05:43 PM,06:17 PM,06:30 AM
642,Ethiopia,Addis Ababa,9.03,38.7,Africa/Addis_Ababa,11.8,53.2,Patchy rain possible,2.2,3.6,NNW,0.1,0.0,83,12.4,54.3,10.0,6.0,1.0,06:16 AM,06:34 PM,07:09 PM,06:27 AM
643,Fiji Islands,Suva,-18.13,178.42,Pacific/Fiji,28.0,82.4,Partly cloudy,12.5,20.2,E,0.0,0.0,79,32.9,91.3,10.0,6.0,5.0,06:15 AM,05:59 PM,06:08 PM,06:15 AM
644,Finland,Helsinki,60.18,24.93,Europe/Helsinki,16.0,60.8,Partly cloudy,4.3,6.8,S,0.0,0.0,94,16.0,60.8,10.0,6.0,1.0,06:11 AM,08:28 PM,08:58 PM,06:01 AM
645,France,Paris,48.87,2.33,Europe/Paris,18.0,64.4,Partly cloudy,5.6,9.0,SSW,1.9,0.07,94,18.0,64.4,10.0,6.0,1.0,07:06 AM,08:36 PM,09:10 PM,07:11 AM
646,Gabon,Libreville,0.38,9.45,Africa/Libreville,24.6,76.3,Partly cloudy,6.0,9.7,SW,0.0,0.0,86,26.9,80.4,10.0,6.0,1.0,06:19 AM,06:26 PM,07:04 PM,06:36 AM
647,Gambia,Banjul,13.45,-16.58,Africa/Banjul,26.0,78.8,Partly cloudy,2.2,3.6,N,0.0,0.0,94,28.4,83.2,10.0,6.0,1.0,06:55 AM,07:19 PM,07:59 PM,07:14 AM
648,Georgia,Tbilisi,41.73,44.79,Asia/Tbilisi,23.0,73.4,Partly cloudy,2.2,3.6,N,0.0,0.0,69,24.9,76.9,10.0,6.0,1.0,06:25 AM,07:37 PM,08:09 PM,06:23 AM
649,Germany,Berlin,52.52,13.4,Europe/Berlin,12.0,53.6,Clear,10.5,16.9,SW,0.0,0.0,88,10.6,51.1,10.0,6.0,1.0,06:15 AM,07:58 PM,08:30 PM,06:15 AM
650,Ghana,Accra,5.55,-0.22,Africa/Accra,26.0,78.8,Partly cloudy,10.5,16.9,SSW,0.0,0.0,89,29.3,84.7,10.0,6.0,1.0,05:55 AM,06:08 PM,06:47 PM,06:12 AM
